name_cleaned,google_maps_link,area,price_level,latitude,longitude,category,dine_in,takeout,delivery,reservable,serves_breakfast,serves_lunch,serves_dinner,serves_coffee,serves_dessert,outdoor_seating,live_music,good_for_children,good_for_groups,good_for_watching_sports,restroom,parking_free_lot,parking_free_street,accepts_debit_cards,accepts_cash_only,wheelchair_accessible,is_open_24_7,open_after_midnight,is_closed_any_day,rating
Napoli Pizza,https://maps.google.com/?cid=5591382623099250121&g_mp=CiVnb29nbGUubWFwcy5wbGFjZXMudjEuUGxhY2VzLkdldFBsYWNlEAIYBCAA,Bahadurabad,PRICE_LEVEL_MODERATE,24.8807902,67.0693592,Pizza Restaurant,TRUE,TRUE,TRUE,TRUE,FALSE,FALSE,TRUE,FALSE,TRUE,FALSE,FALSE,TRUE,TRUE,FALSE,TRUE,TRUE,TRUE,TRUE,FALSE,FALSE,FALSE,TRUE,FALSE,4.9
Cafe Marina,https://maps.google.com/?cid=9207632553289350205&g_mp=CiVnb29nbGUubWFwcy5wbGFjZXMudjEuUGxhY2VzLkdldFBsYWNlEAIYBCAA,DHA,PRICE_LEVEL_MODERATE,24.8077029,67.0388194,Restaurant,TRUE,TRUE,TRUE,TRUE,FALSE,FALSE,TRUE,FALSE,TRUE,FALSE,FALSE,FALSE,TRUE,FALSE,TRUE,FALSE,TRUE,TRUE,FALSE,FALSE,FALSE,FALSE,FALSE,4.9
The Burgery's,https://maps.google.com/?cid=12178323240068295907&g_mp=CiVnb29nbGUubWFwcy5wbGFjZXMudjEuUGxhY2VzLkdldFBsYWNlEAIYBCAA,Gulshan-e-Iqbal,PRICE_LEVEL_MODERATE,24.923728,67.0917453,Fast Food Restaurant,TRUE,TRUE,TRUE,FALSE,FALSE,FALSE,FALSE,FALSE,FALSE,FALSE,FALSE,TRUE,TRUE,FALSE,FALSE,TRUE,FALSE,TRUE,FALSE,FALSE,TRUE,FALSE,FALSE,4.9
Al-Madina Shinwari Hotel,https://maps.google.com/?cid=12750069394653371813&g_mp=CiVnb29nbGUubWFwcy5wbGFjZXMudjEuUGxhY2VzLkdldFBsYWNlEAIYBCAA,Kharadar,PRICE_LEVEL_MODERATE,24.849613,66.9956737,Barbecue Restaurant,TRUE,TRUE,TRUE,TRUE,TRUE,FALSE,TRUE,FALSE,TRUE,TRUE,FALSE,TRUE,FALSE,TRUE,TRUE,TRUE,TRUE,TRUE,FALSE,TRUE,FALSE,TRUE,FALSE,4.9
Mr. Beef Burgrz,https://maps.google.com/?cid=11335880612124993599&g_mp=CiVnb29nbGUubWFwcy5wbGFjZXMudjEuUGxhY2VzLkdldFBsYWNlEAIYBCAA,Malir,PRICE_LEVEL_MODERATE,24.902723,67.1839976,Fast Food Restaurant,TRUE,TRUE,TRUE,FALSE,FALSE,FALSE,TRUE,FALSE,FALSE,FALSE,FALSE,FALSE,FALSE,FALSE,FALSE,FALSE,FALSE,TRUE,FALSE,FALSE,FALSE,TRUE,FALSE,4.9
DUMPLISH,https://maps.google.com/?cid=2430789500486781940&g_mp=CiVnb29nbGUubWFwcy5wbGFjZXMudjEuUGxhY2VzLkdldFBsYWNlEAIYBCAA,North Karachi,PRICE_LEVEL_MODERATE,24.9741655,67.0533222,Chinese Restaurant,TRUE,FALSE,TRUE,FALSE,FALSE,FALSE,TRUE,FALSE,FALSE,FALSE,FALSE,TRUE,TRUE,FALSE,FALSE,FALSE,FALSE,TRUE,FALSE,FALSE,FALSE,TRUE,FALSE,4.9
Thai Chin Karachi,https://maps.google.com/?cid=11125690951984376846&g_mp=CiVnb29nbGUubWFwcy5wbGFjZXMudjEuUGxhY2VzLkdldFBsYWNlEAIYBCAA,Scheme 33,PRICE_LEVEL_MODERATE,24.9435152,67.1496819,Restaurant,TRUE,TRUE,TRUE,TRUE,FALSE,TRUE,FALSE,FALSE,FALSE,FALSE,FALSE,TRUE,TRUE,FALSE,TRUE,FALSE,TRUE,TRUE,FALSE,TRUE,FALSE,TRUE,FALSE,4.9
Real Spice - Tariq Road -,https://maps.google.com/?cid=7741574919453233408&g_mp=CiVnb29nbGUubWFwcy5wbGFjZXMudjEuUGxhY2VzLkdldFBsYWNlEAIYBCAA,Tariq Road,PRICE_LEVEL_MODERATE,24.8682058,67.0574839,Restaurant,TRUE,TRUE,TRUE,TRUE,FALSE,TRUE,TRUE,TRUE,TRUE,FALSE,FALSE,TRUE,TRUE,FALSE,TRUE,FALSE,TRUE,TRUE,FALSE,FALSE,FALSE,TRUE,FALSE,4.8
The Big Pizza - FB Area,https://maps.google.com/?cid=5522211331214753189&g_mp=CiVnb29nbGUubWFwcy5wbGFjZXMudjEuUGxhY2VzLkdldFBsYWNlEAIYBCAA,Federal B Area,PRICE_LEVEL_MODERATE,24.9315903,67.0700542,Pizza Restaurant,TRUE,TRUE,TRUE,FALSE,FALSE,FALSE,TRUE,FALSE,TRUE,TRUE,FALSE,TRUE,TRUE,FALSE,FALSE,TRUE,TRUE,TRUE,FALSE,FALSE,FALSE,TRUE,FALSE,4.8
The Big Pizza - Johar,https://maps.google.com/?cid=7639497854553636481&g_mp=CiVnb29nbGUubWFwcy5wbGFjZXMudjEuUGxhY2VzLkdldFBsYWNlEAIYBCAA,Gulistan-e-Johar,PRICE_LEVEL_MODERATE,24.9084418,67.1208602,Pizza Restaurant,TRUE,TRUE,TRUE,FALSE,FALSE,TRUE,TRUE,FALSE,TRUE,FALSE,FALSE,TRUE,TRUE,FALSE,FALSE,TRUE,TRUE,TRUE,FALSE,FALSE,FALSE,TRUE,FALSE,4.8
Caesar's Pizza North Nazimabad,https://maps.google.com/?cid=11836001741696933999&g_mp=CiVnb29nbGUubWFwcy5wbGFjZXMudjEuUGxhY2VzLkdldFBsYWNlEAIYBCAA,Nazimabad,PRICE_LEVEL_MODERATE,24.9401307,67.0505057,Pizza Restaurant,TRUE,TRUE,TRUE,TRUE,FALSE,TRUE,TRUE,FALSE,TRUE,TRUE,FALSE,TRUE,TRUE,FALSE,TRUE,TRUE,TRUE,TRUE,FALSE,FALSE,FALSE,TRUE,FALSE,4.8
Beef Smash - Gulshan,https://maps.google.com/?cid=12750801669585747798&g_mp=CiVnb29nbGUubWFwcy5wbGFjZXMudjEuUGxhY2VzLkdldFBsYWNlEAIYBCAA,Gulshan-e-Iqbal,PRICE_LEVEL_MODERATE,24.9120722,67.0888039,Restaurant,TRUE,TRUE,TRUE,FALSE,FALSE,TRUE,TRUE,FALSE,FALSE,FALSE,FALSE,TRUE,TRUE,FALSE,FALSE,TRUE,TRUE,TRUE,FALSE,FALSE,FALSE,TRUE,FALSE,4.8
Beef Smash,https://maps.google.com/?cid=11096597264803321055&g_mp=CiVnb29nbGUubWFwcy5wbGFjZXMudjEuUGxhY2VzLkdldFBsYWNlEAIYBCAA,DHA,PRICE_LEVEL_MODERATE,24.7945769,67.0492246,Fast Food Restaurant,TRUE,TRUE,TRUE,FALSE,FALSE,TRUE,TRUE,FALSE,FALSE,FALSE,FALSE,TRUE,TRUE,FALSE,FALSE,FALSE,TRUE,TRUE,FALSE,FALSE,FALSE,TRUE,FALSE,4.8
The Big Pizza - North Karachi,https://maps.google.com/?cid=17665806396311305710&g_mp=CiVnb29nbGUubWFwcy5wbGFjZXMudjEuUGxhY2VzLkdldFBsYWNlEAIYBCAA,North Karachi,PRICE_LEVEL_MODERATE,24.9704811,67.0662254,Pizza Restaurant,TRUE,TRUE,TRUE,FALSE,FALSE,FALSE,FALSE,FALSE,FALSE,FALSE,FALSE,TRUE,TRUE,FALSE,FALSE,TRUE,TRUE,TRUE,FALSE,FALSE,FALSE,TRUE,FALSE,4.8
CNS - Chinese Restaurant,https://maps.google.com/?cid=17776988506615009897&g_mp=CiVnb29nbGUubWFwcy5wbGFjZXMudjEuUGxhY2VzLkdldFBsYWNlEAIYBCAA,DHA,PRICE_LEVEL_MODERATE,24.8126573,67.0498702,Chinese Restaurant,TRUE,TRUE,TRUE,TRUE,FALSE,TRUE,TRUE,FALSE,TRUE,FALSE,FALSE,TRUE,TRUE,FALSE,TRUE,TRUE,TRUE,TRUE,FALSE,FALSE,FALSE,FALSE,FALSE,4.8
Pizza Bake orangi Town,https://maps.google.com/?cid=7296732810803044437&g_mp=CiVnb29nbGUubWFwcy5wbGFjZXMudjEuUGxhY2VzLkdldFBsYWNlEAIYBCAA,Orangi Town,PRICE_LEVEL_MODERATE,24.9533766,66.9875868,Restaurant,TRUE,TRUE,TRUE,FALSE,FALSE,FALSE,TRUE,FALSE,TRUE,FALSE,FALSE,TRUE,TRUE,FALSE,FALSE,TRUE,TRUE,TRUE,FALSE,FALSE,FALSE,TRUE,FALSE,4.8
Beit Al Halab - BTK,https://maps.google.com/?cid=4589361410113952783&g_mp=CiVnb29nbGUubWFwcy5wbGFjZXMudjEuUGxhY2VzLkdldFBsYWNlEAIYBCAA,Bahria Town,PRICE_LEVEL_MODERATE,25.0293209,67.3078611,Middle Eastern Restaurant,TRUE,TRUE,TRUE,FALSE,FALSE,TRUE,TRUE,FALSE,FALSE,TRUE,FALSE,TRUE,TRUE,FALSE,FALSE,TRUE,TRUE,TRUE,FALSE,FALSE,FALSE,TRUE,FALSE,4.8
Pizza Bistro- Garden,https://maps.google.com/?cid=6105194131799123948&g_mp=CiVnb29nbGUubWFwcy5wbGFjZXMudjEuUGxhY2VzLkdldFBsYWNlEAIYBCAA,Central Karachi,PRICE_LEVEL_MODERATE,24.8860539,67.0310509,Restaurant,TRUE,TRUE,TRUE,FALSE,FALSE,FALSE,FALSE,TRUE,FALSE,FALSE,FALSE,FALSE,FALSE,FALSE,FALSE,FALSE,FALSE,TRUE,FALSE,FALSE,FALSE,TRUE,FALSE,4.8
Broadway Pizza - Dolmen Mall Tariq Road,https://maps.google.com/?cid=13643904555197116797&g_mp=CiVnb29nbGUubWFwcy5wbGFjZXMudjEuUGxhY2VzLkdldFBsYWNlEAIYBCAA,Tariq Road,PRICE_LEVEL_MODERATE,24.876768,67.0627188,Pizza Restaurant,TRUE,TRUE,TRUE,FALSE,FALSE,TRUE,TRUE,FALSE,FALSE,FALSE,FALSE,TRUE,TRUE,FALSE,FALSE,FALSE,TRUE,TRUE,FALSE,FALSE,FALSE,FALSE,FALSE,4.8
Pizza Bistro - Gulshan-e-Iqbal,https://maps.google.com/?cid=866506857948290753&g_mp=CiVnb29nbGUubWFwcy5wbGFjZXMudjEuUGxhY2VzLkdldFBsYWNlEAIYBCAA,Gulshan-e-Iqbal,PRICE_LEVEL_MODERATE,24.9298481,67.0981169,Restaurant,TRUE,TRUE,TRUE,TRUE,FALSE,TRUE,TRUE,TRUE,TRUE,FALSE,FALSE,TRUE,TRUE,FALSE,TRUE,FALSE,FALSE,TRUE,FALSE,FALSE,FALSE,TRUE,FALSE,4.8
LEVEL2 by Espresso,https://maps.google.com/?cid=15600170540768482875&g_mp=CiVnb29nbGUubWFwcy5wbGFjZXMudjEuUGxhY2VzLkdldFBsYWNlEAIYBCAA,Tipu Sultan,PRICE_LEVEL_MODERATE,24.8677363,67.0775621,Restaurant,TRUE,TRUE,TRUE,TRUE,FALSE,FALSE,TRUE,TRUE,TRUE,FALSE,FALSE,TRUE,TRUE,FALSE,TRUE,FALSE,FALSE,TRUE,FALSE,FALSE,FALSE,TRUE,FALSE,4.8
wedrink bahadurabad,https://maps.google.com/?cid=17564730846670615517&g_mp=CiVnb29nbGUubWFwcy5wbGFjZXMudjEuUGxhY2VzLkdldFBsYWNlEAIYBCAA,Bahadurabad,PRICE_LEVEL_MODERATE,24.8833437,67.0658541,Cafe,TRUE,TRUE,TRUE,FALSE,FALSE,FALSE,FALSE,FALSE,FALSE,FALSE,FALSE,FALSE,FALSE,FALSE,FALSE,TRUE,TRUE,FALSE,TRUE,FALSE,FALSE,TRUE,FALSE,4.8
Mizaaj,https://maps.google.com/?cid=12491068446913167998&g_mp=CiVnb29nbGUubWFwcy5wbGFjZXMudjEuUGxhY2VzLkdldFBsYWNlEAIYBCAA,Sindhi Muslim,PRICE_LEVEL_MODERATE,24.8600969,67.0544738,Restaurant,TRUE,TRUE,TRUE,TRUE,FALSE,TRUE,TRUE,TRUE,TRUE,TRUE,FALSE,TRUE,TRUE,FALSE,TRUE,TRUE,TRUE,TRUE,FALSE,TRUE,FALSE,TRUE,FALSE,4.7
Ginsoy - Malir Branch,https://maps.google.com/?cid=16439165091156755222&g_mp=CiVnb29nbGUubWFwcy5wbGFjZXMudjEuUGxhY2VzLkdldFBsYWNlEAIYBCAA,Gulshan-e-Iqbal,PRICE_LEVEL_MODERATE,24.9117345,67.1850987,Chinese Restaurant,TRUE,TRUE,TRUE,TRUE,TRUE,TRUE,TRUE,TRUE,TRUE,TRUE,FALSE,TRUE,TRUE,FALSE,TRUE,TRUE,TRUE,TRUE,FALSE,FALSE,FALSE,TRUE,FALSE,4.7
The Big Pizza,https://maps.google.com/?cid=2599133889502420853&g_mp=CiVnb29nbGUubWFwcy5wbGFjZXMudjEuUGxhY2VzLkdldFBsYWNlEAIYBCAA,Central Karachi,PRICE_LEVEL_MODERATE,24.8834041,67.0642768,Pizza Restaurant,TRUE,TRUE,TRUE,TRUE,FALSE,TRUE,TRUE,FALSE,TRUE,TRUE,FALSE,TRUE,TRUE,FALSE,FALSE,TRUE,TRUE,TRUE,FALSE,FALSE,FALSE,TRUE,FALSE,4.7
Su Jing Restaurant,https://maps.google.com/?cid=6203261754288439808&g_mp=CiVnb29nbGUubWFwcy5wbGFjZXMudjEuUGxhY2VzLkdldFBsYWNlEAIYBCAA,Gulistan-e-Johar,PRICE_LEVEL_MODERATE,24.9258316,67.1255939,Restaurant,TRUE,TRUE,TRUE,TRUE,FALSE,TRUE,TRUE,TRUE,TRUE,TRUE,FALSE,TRUE,TRUE,FALSE,TRUE,TRUE,TRUE,TRUE,FALSE,TRUE,FALSE,TRUE,FALSE,4.7
The Carnivore Karachi,https://maps.google.com/?cid=15364517032145217206&g_mp=CiVnb29nbGUubWFwcy5wbGFjZXMudjEuUGxhY2VzLkdldFBsYWNlEAIYBCAA,DHA,PRICE_LEVEL_MODERATE,24.7946301,67.048605,Restaurant,TRUE,TRUE,FALSE,TRUE,FALSE,TRUE,TRUE,FALSE,FALSE,FALSE,FALSE,TRUE,TRUE,FALSE,TRUE,TRUE,TRUE,TRUE,FALSE,FALSE,FALSE,FALSE,FALSE,4.7
Broadway Pizza - I.I Chundrigar,https://maps.google.com/?cid=2280414581477741909&g_mp=CiVnb29nbGUubWFwcy5wbGFjZXMudjEuUGxhY2VzLkdldFBsYWNlEAIYBCAA,Central Karachi,PRICE_LEVEL_MODERATE,24.8491623,67.0032924,Pizza Restaurant,TRUE,TRUE,TRUE,TRUE,FALSE,TRUE,TRUE,FALSE,TRUE,FALSE,FALSE,TRUE,TRUE,FALSE,TRUE,TRUE,TRUE,TRUE,FALSE,FALSE,FALSE,TRUE,FALSE,4.7
Broadway Pizza - Garden,https://maps.google.com/?cid=3718464941589706040&g_mp=CiVnb29nbGUubWFwcy5wbGFjZXMudjEuUGxhY2VzLkdldFBsYWNlEAIYBCAA,Garden East,PRICE_LEVEL_MODERATE,24.8855184,67.0308691,Pizza Restaurant,TRUE,TRUE,TRUE,TRUE,TRUE,TRUE,TRUE,FALSE,TRUE,FALSE,FALSE,TRUE,TRUE,FALSE,FALSE,FALSE,TRUE,TRUE,FALSE,FALSE,FALSE,TRUE,FALSE,4.7
Arabian Grill Night,https://maps.google.com/?cid=11009837728592395410&g_mp=CiVnb29nbGUubWFwcy5wbGFjZXMudjEuUGxhY2VzLkdldFBsYWNlEAIYBCAA,Scheme 33,PRICE_LEVEL_MODERATE,24.9617334,67.1257975,Restaurant,TRUE,TRUE,TRUE,TRUE,FALSE,TRUE,TRUE,FALSE,TRUE,TRUE,FALSE,TRUE,TRUE,FALSE,TRUE,TRUE,TRUE,TRUE,FALSE,FALSE,FALSE,TRUE,FALSE,4.7
Auntie Munaver's Dessert & Savory,https://maps.google.com/?cid=14917841119722408004&g_mp=CiVnb29nbGUubWFwcy5wbGFjZXMudjEuUGxhY2VzLkdldFBsYWNlEAIYBCAA,DHA,PRICE_LEVEL_MODERATE,24.7871429,67.0585078,Dessert Shop,FALSE,TRUE,TRUE,FALSE,FALSE,FALSE,FALSE,FALSE,FALSE,FALSE,FALSE,FALSE,FALSE,FALSE,FALSE,TRUE,FALSE,TRUE,FALSE,FALSE,FALSE,FALSE,FALSE,4.7
Beef Smash - Johar,https://maps.google.com/?cid=5011349649982376241&g_mp=CiVnb29nbGUubWFwcy5wbGFjZXMudjEuUGxhY2VzLkdldFBsYWNlEAIYBCAA,Central Karachi,PRICE_LEVEL_MODERATE,24.9185705,67.1320518,Fast Food Restaurant,TRUE,TRUE,TRUE,FALSE,FALSE,FALSE,TRUE,FALSE,FALSE,FALSE,FALSE,TRUE,TRUE,FALSE,FALSE,FALSE,TRUE,TRUE,FALSE,FALSE,FALSE,TRUE,FALSE,4.7
Boss Cafe,https://maps.google.com/?cid=3329767466884624818&g_mp=CiVnb29nbGUubWFwcy5wbGFjZXMudjEuUGxhY2VzLkdldFBsYWNlEAIYBCAA,Korangi,PRICE_LEVEL_MODERATE,24.8415209,67.0981111,Restaurant,TRUE,TRUE,TRUE,TRUE,FALSE,TRUE,TRUE,TRUE,TRUE,TRUE,FALSE,TRUE,TRUE,FALSE,FALSE,TRUE,TRUE,TRUE,FALSE,FALSE,FALSE,TRUE,FALSE,4.7
Sakura Japanese Restaurant,https://maps.google.com/?cid=13496879999710323240&g_mp=CiVnb29nbGUubWFwcy5wbGFjZXMudjEuUGxhY2VzLkdldFBsYWNlEAIYBCAA,DHA,PRICE_LEVEL_VERY_EXPENSIVE,24.7950734,67.0490721,Japanese Restaurant,TRUE,TRUE,TRUE,TRUE,FALSE,TRUE,TRUE,TRUE,TRUE,FALSE,FALSE,TRUE,TRUE,FALSE,TRUE,TRUE,TRUE,TRUE,FALSE,FALSE,FALSE,FALSE,FALSE,4.7
Pizza Creations,https://maps.google.com/?cid=4883599035111601566&g_mp=CiVnb29nbGUubWFwcy5wbGFjZXMudjEuUGxhY2VzLkdldFBsYWNlEAIYBCAA,Chakiwara,PRICE_LEVEL_MODERATE,24.8672295,66.9992772,Restaurant,TRUE,TRUE,TRUE,FALSE,FALSE,TRUE,TRUE,FALSE,FALSE,FALSE,FALSE,TRUE,TRUE,FALSE,FALSE,TRUE,TRUE,FALSE,TRUE,TRUE,FALSE,TRUE,FALSE,4.7
dbrewd Coffee & More,https://maps.google.com/?cid=2370684634239370598&g_mp=CiVnb29nbGUubWFwcy5wbGFjZXMudjEuUGxhY2VzLkdldFBsYWNlEAIYBCAA,Central Karachi,PRICE_LEVEL_MODERATE,24.8505898,67.017593,Cafe,TRUE,TRUE,TRUE,FALSE,FALSE,TRUE,FALSE,TRUE,TRUE,FALSE,FALSE,TRUE,TRUE,FALSE,FALSE,FALSE,TRUE,TRUE,FALSE,FALSE,FALSE,FALSE,TRUE,4.7
Pizza Stop Korangi Branch,https://maps.google.com/?cid=4838043696860229268&g_mp=CiVnb29nbGUubWFwcy5wbGFjZXMudjEuUGxhY2VzLkdldFBsYWNlEAIYBCAA,Korangi,PRICE_LEVEL_INEXPENSIVE,24.8306787,67.1173911,Restaurant,TRUE,TRUE,TRUE,FALSE,FALSE,TRUE,TRUE,FALSE,FALSE,TRUE,FALSE,TRUE,TRUE,FALSE,FALSE,TRUE,TRUE,TRUE,FALSE,FALSE,FALSE,TRUE,FALSE,4.7
Beit Al Halab - Defence,https://maps.google.com/?cid=1230591158628044541&g_mp=CiVnb29nbGUubWFwcy5wbGFjZXMudjEuUGxhY2VzLkdldFBsYWNlEAIYBCAA,DHA,PRICE_LEVEL_MODERATE,24.8022558,67.074559,Restaurant,TRUE,TRUE,TRUE,FALSE,FALSE,FALSE,FALSE,FALSE,FALSE,FALSE,FALSE,TRUE,TRUE,FALSE,FALSE,FALSE,TRUE,TRUE,FALSE,FALSE,TRUE,FALSE,FALSE,4.7
Mards Food's The Barbecue Specialist,https://maps.google.com/?cid=7939563861991602614&g_mp=CiVnb29nbGUubWFwcy5wbGFjZXMudjEuUGxhY2VzLkdldFBsYWNlEAIYBCAA,Gulshan-e-Iqbal,PRICE_LEVEL_MODERATE,24.9347726,67.105073,Barbecue Restaurant,FALSE,TRUE,TRUE,TRUE,FALSE,FALSE,TRUE,FALSE,TRUE,FALSE,FALSE,FALSE,FALSE,TRUE,FALSE,TRUE,TRUE,FALSE,FALSE,TRUE,FALSE,TRUE,TRUE,4.7
Jameel Sweets,https://maps.google.com/?cid=13982618382661397917&g_mp=CiVnb29nbGUubWFwcy5wbGFjZXMudjEuUGxhY2VzLkdldFBsYWNlEAIYBCAA,Orangi Town,PRICE_LEVEL_INEXPENSIVE,24.9438797,67.0114126,Buffet Restaurant,FALSE,TRUE,TRUE,FALSE,FALSE,FALSE,FALSE,FALSE,TRUE,FALSE,FALSE,TRUE,FALSE,FALSE,FALSE,FALSE,TRUE,FALSE,TRUE,FALSE,FALSE,FALSE,FALSE,4.7
Lala Biryani and Catering,https://maps.google.com/?cid=15935054377920037007&g_mp=CiVnb29nbGUubWFwcy5wbGFjZXMudjEuUGxhY2VzLkdldFBsYWNlEAIYBCAA,Burns Road,PRICE_LEVEL_MODERATE,24.8547048,67.015411,Indian Restaurant,TRUE,TRUE,TRUE,FALSE,FALSE,TRUE,TRUE,FALSE,FALSE,FALSE,FALSE,TRUE,TRUE,FALSE,FALSE,FALSE,FALSE,TRUE,FALSE,FALSE,FALSE,TRUE,FALSE,4.7
Vox Coffee,https://maps.google.com/?cid=15588002088083285237&g_mp=CiVnb29nbGUubWFwcy5wbGFjZXMudjEuUGxhY2VzLkdldFBsYWNlEAIYBCAA,KDA Scheme 1,PRICE_LEVEL_MODERATE,24.8790767,67.0904177,Cafe,TRUE,TRUE,TRUE,FALSE,FALSE,FALSE,FALSE,TRUE,TRUE,FALSE,FALSE,TRUE,TRUE,FALSE,TRUE,TRUE,TRUE,TRUE,FALSE,FALSE,FALSE,TRUE,FALSE,4.7
California Pizza - M.A. Jinnah Road,https://maps.google.com/?cid=17073919682800447298&g_mp=CiVnb29nbGUubWFwcy5wbGFjZXMudjEuUGxhY2VzLkdldFBsYWNlEAIYBCAA,Gazdarabad,PRICE_LEVEL_MODERATE,24.8665789,67.0266712,Pizza Restaurant,TRUE,TRUE,TRUE,FALSE,FALSE,FALSE,TRUE,FALSE,FALSE,FALSE,FALSE,TRUE,TRUE,FALSE,FALSE,TRUE,TRUE,TRUE,FALSE,FALSE,FALSE,TRUE,FALSE,4.7
DONG BUNSIK,https://maps.google.com/?cid=11542482327228743318&g_mp=CiVnb29nbGUubWFwcy5wbGFjZXMudjEuUGxhY2VzLkdldFBsYWNlEAIYBCAA,DHA,PRICE_LEVEL_MODERATE,24.8383125,67.0820625,Korean Restaurant,TRUE,TRUE,TRUE,FALSE,FALSE,TRUE,TRUE,TRUE,TRUE,FALSE,FALSE,TRUE,FALSE,FALSE,FALSE,TRUE,TRUE,FALSE,TRUE,FALSE,FALSE,FALSE,TRUE,4.7
Doctor's Cafe,https://maps.google.com/?cid=9300105933350853270&g_mp=CiVnb29nbGUubWFwcy5wbGFjZXMudjEuUGxhY2VzLkdldFBsYWNlEAIYBCAA,Central Karachi,PRICE_LEVEL_MODERATE,24.8589291,67.0115489,Restaurant,TRUE,TRUE,TRUE,FALSE,TRUE,TRUE,TRUE,TRUE,TRUE,FALSE,FALSE,FALSE,TRUE,FALSE,TRUE,FALSE,FALSE,TRUE,FALSE,FALSE,FALSE,FALSE,TRUE,4.7
The Wok Hei (Finest Pan Asian Cuisine),https://maps.google.com/?cid=11662194959924447504&g_mp=CiVnb29nbGUubWFwcy5wbGFjZXMudjEuUGxhY2VzLkdldFBsYWNlEAIYBCAA,DHA,PRICE_LEVEL_MODERATE,24.8299122,67.0735858,Asian Restaurant,TRUE,TRUE,TRUE,TRUE,FALSE,TRUE,TRUE,FALSE,TRUE,FALSE,FALSE,TRUE,TRUE,FALSE,TRUE,TRUE,TRUE,TRUE,FALSE,FALSE,FALSE,TRUE,FALSE,4.7
The Hangout Pizza Classic,https://maps.google.com/?cid=17498932394914212393&g_mp=CiVnb29nbGUubWFwcy5wbGFjZXMudjEuUGxhY2VzLkdldFBsYWNlEAIYBCAA,North Karachi,PRICE_LEVEL_MODERATE,24.9762235,67.0558346,Restaurant,TRUE,TRUE,TRUE,FALSE,FALSE,FALSE,TRUE,FALSE,FALSE,FALSE,FALSE,TRUE,TRUE,FALSE,FALSE,FALSE,TRUE,TRUE,FALSE,FALSE,FALSE,TRUE,FALSE,4.7
Flame & Grill restaurant,https://maps.google.com/?cid=10123359773313845106&g_mp=CiVnb29nbGUubWFwcy5wbGFjZXMudjEuUGxhY2VzLkdldFBsYWNlEAIYBCAA,Other,PRICE_LEVEL_MODERATE,24.8217343,67.0783415,Restaurant,TRUE,TRUE,TRUE,TRUE,FALSE,TRUE,TRUE,FALSE,TRUE,TRUE,FALSE,TRUE,TRUE,FALSE,TRUE,TRUE,TRUE,TRUE,FALSE,FALSE,FALSE,TRUE,FALSE,4.7
Quick Bite Cafe,https://maps.google.com/?cid=14556454910571056076&g_mp=CiVnb29nbGUubWFwcy5wbGFjZXMudjEuUGxhY2VzLkdldFBsYWNlEAIYBCAA,Federal B Area,PRICE_LEVEL_MODERATE,24.9265799,67.0699603,Restaurant,TRUE,TRUE,TRUE,FALSE,FALSE,FALSE,TRUE,FALSE,FALSE,FALSE,FALSE,TRUE,TRUE,FALSE,FALSE,FALSE,TRUE,TRUE,FALSE,FALSE,FALSE,TRUE,FALSE,4.7
Abdul Wahid Gola Kabab House,https://maps.google.com/?cid=15637831406863002932&g_mp=CiVnb29nbGUubWFwcy5wbGFjZXMudjEuUGxhY2VzLkdldFBsYWNlEAIYBCAA,North Karachi,PRICE_LEVEL_MODERATE,24.971973,67.0635806,Barbecue Restaurant,TRUE,TRUE,TRUE,FALSE,FALSE,FALSE,TRUE,FALSE,FALSE,FALSE,FALSE,TRUE,TRUE,FALSE,FALSE,TRUE,TRUE,TRUE,FALSE,FALSE,FALSE,TRUE,FALSE,4.7
Bagh e Jinnah Restaurant,https://maps.google.com/?cid=11063603456772238530&g_mp=CiVnb29nbGUubWFwcy5wbGFjZXMudjEuUGxhY2VzLkdldFBsYWNlEAIYBCAA,Model Colony,PRICE_LEVEL_MODERATE,24.8957285,67.1788605,Restaurant,TRUE,TRUE,TRUE,FALSE,FALSE,FALSE,FALSE,FALSE,FALSE,FALSE,FALSE,FALSE,FALSE,FALSE,FALSE,FALSE,FALSE,TRUE,FALSE,FALSE,FALSE,TRUE,FALSE,4.7
Ginsoy - Gulshan Branch,https://maps.google.com/?cid=12258243286412438215&g_mp=CiVnb29nbGUubWFwcy5wbGFjZXMudjEuUGxhY2VzLkdldFBsYWNlEAIYBCAA,Gulshan-e-Iqbal,PRICE_LEVEL_MODERATE,24.9329465,67.1019956,Chinese Restaurant,TRUE,TRUE,TRUE,TRUE,TRUE,TRUE,TRUE,FALSE,TRUE,FALSE,FALSE,TRUE,TRUE,FALSE,TRUE,TRUE,TRUE,TRUE,FALSE,FALSE,FALSE,FALSE,FALSE,4.6
Pizza Max - Airport,https://maps.google.com/?cid=18136969403750456300&g_mp=CiVnb29nbGUubWFwcy5wbGFjZXMudjEuUGxhY2VzLkdldFBsYWNlEAIYBCAA,Model Colony,PRICE_LEVEL_MODERATE,24.9051761,67.1827195,Pizza Restaurant,TRUE,TRUE,TRUE,TRUE,FALSE,TRUE,TRUE,FALSE,TRUE,TRUE,FALSE,TRUE,TRUE,FALSE,TRUE,TRUE,TRUE,TRUE,FALSE,FALSE,FALSE,TRUE,FALSE,4.6
Broadway Pizza - FB Area,https://maps.google.com/?cid=1021465131959195485&g_mp=CiVnb29nbGUubWFwcy5wbGFjZXMudjEuUGxhY2VzLkdldFBsYWNlEAIYBCAA,Federal B Area,PRICE_LEVEL_MODERATE,24.9239253,67.0590972,Pizza Restaurant,TRUE,TRUE,TRUE,TRUE,TRUE,TRUE,TRUE,FALSE,TRUE,FALSE,FALSE,TRUE,TRUE,FALSE,TRUE,TRUE,TRUE,TRUE,FALSE,FALSE,FALSE,TRUE,FALSE,4.6
Double Cheeze - Gulshan Branch,https://maps.google.com/?cid=4895377297269145662&g_mp=CiVnb29nbGUubWFwcy5wbGFjZXMudjEuUGxhY2VzLkdldFBsYWNlEAIYBCAA,Gulshan-e-Iqbal,PRICE_LEVEL_MODERATE,24.929901,67.0993189,Fast Food Restaurant,TRUE,TRUE,TRUE,FALSE,TRUE,TRUE,TRUE,TRUE,TRUE,FALSE,FALSE,TRUE,TRUE,FALSE,TRUE,TRUE,TRUE,TRUE,FALSE,TRUE,FALSE,TRUE,FALSE,4.6
Beef Smash,https://maps.google.com/?cid=11100955471910945461&g_mp=CiVnb29nbGUubWFwcy5wbGFjZXMudjEuUGxhY2VzLkdldFBsYWNlEAIYBCAA,Delhi Mercantile Society,PRICE_LEVEL_MODERATE,24.878139,67.0666738,Restaurant,TRUE,TRUE,TRUE,FALSE,FALSE,TRUE,TRUE,FALSE,FALSE,TRUE,FALSE,TRUE,TRUE,FALSE,FALSE,TRUE,TRUE,TRUE,FALSE,FALSE,FALSE,TRUE,FALSE,4.6
Real Spice by Rehmat e Shereen,https://maps.google.com/?cid=8928265982097865187&g_mp=CiVnb29nbGUubWFwcy5wbGFjZXMudjEuUGxhY2VzLkdldFBsYWNlEAIYBCAA,Malir,PRICE_LEVEL_MODERATE,24.9328523,67.1819168,Restaurant,TRUE,TRUE,TRUE,TRUE,FALSE,TRUE,TRUE,TRUE,TRUE,TRUE,FALSE,TRUE,TRUE,FALSE,TRUE,TRUE,TRUE,TRUE,FALSE,TRUE,FALSE,FALSE,FALSE,4.6
terraza,https://maps.google.com/?cid=12654528486431219326&g_mp=CiVnb29nbGUubWFwcy5wbGFjZXMudjEuUGxhY2VzLkdldFBsYWNlEAIYBCAA,Clifton,PRICE_LEVEL_EXPENSIVE,24.8091681,67.0335313,Restaurant,TRUE,TRUE,TRUE,TRUE,FALSE,TRUE,TRUE,TRUE,TRUE,TRUE,FALSE,TRUE,TRUE,FALSE,TRUE,TRUE,TRUE,TRUE,FALSE,FALSE,FALSE,TRUE,FALSE,4.6
Kanteen,https://maps.google.com/?cid=5199493682040438233&g_mp=CiVnb29nbGUubWFwcy5wbGFjZXMudjEuUGxhY2VzLkdldFBsYWNlEAIYBCAA,Clifton,PRICE_LEVEL_MODERATE,24.8016359,67.0302758,Restaurant,TRUE,TRUE,TRUE,TRUE,TRUE,TRUE,TRUE,TRUE,TRUE,FALSE,FALSE,TRUE,TRUE,FALSE,FALSE,TRUE,FALSE,TRUE,FALSE,TRUE,FALSE,FALSE,FALSE,4.6
Wokfire,https://maps.google.com/?cid=3158298112014293113&g_mp=CiVnb29nbGUubWFwcy5wbGFjZXMudjEuUGxhY2VzLkdldFBsYWNlEAIYBCAA,Scheme 33,PRICE_LEVEL_MODERATE,24.9242393,67.176697,Restaurant,TRUE,TRUE,TRUE,TRUE,FALSE,TRUE,TRUE,TRUE,TRUE,FALSE,FALSE,TRUE,TRUE,FALSE,TRUE,TRUE,TRUE,TRUE,FALSE,FALSE,FALSE,TRUE,TRUE,4.6
Chef's Table Pakistan,https://maps.google.com/?cid=10959752774266075065&g_mp=CiVnb29nbGUubWFwcy5wbGFjZXMudjEuUGxhY2VzLkdldFBsYWNlEAIYBCAA,DHA,PRICE_LEVEL_VERY_EXPENSIVE,24.8010457,67.0744309,Restaurant,TRUE,FALSE,TRUE,TRUE,FALSE,FALSE,TRUE,FALSE,TRUE,FALSE,FALSE,FALSE,TRUE,FALSE,TRUE,TRUE,TRUE,TRUE,FALSE,FALSE,FALSE,FALSE,FALSE,4.6
Cafe Little Karachi,https://maps.google.com/?cid=3007925089011020978&g_mp=CiVnb29nbGUubWFwcy5wbGFjZXMudjEuUGxhY2VzLkdldFBsYWNlEAIYBCAA,Gulistan-e-Johar,PRICE_LEVEL_MODERATE,24.9219151,67.1163346,Restaurant,TRUE,TRUE,TRUE,TRUE,FALSE,TRUE,TRUE,TRUE,TRUE,TRUE,FALSE,TRUE,TRUE,FALSE,FALSE,TRUE,TRUE,TRUE,FALSE,FALSE,FALSE,TRUE,FALSE,4.6
Cocoa Skyebar,https://maps.google.com/?cid=13149616968577306761&g_mp=CiVnb29nbGUubWFwcy5wbGFjZXMudjEuUGxhY2VzLkdldFBsYWNlEAIYBCAA,Clifton,PRICE_LEVEL_MODERATE,24.8077225,67.0341619,Restaurant,TRUE,TRUE,TRUE,TRUE,FALSE,FALSE,TRUE,TRUE,TRUE,FALSE,FALSE,TRUE,TRUE,FALSE,TRUE,FALSE,TRUE,TRUE,FALSE,FALSE,FALSE,TRUE,FALSE,4.6
Coffee Wagera Bahadurabad (Karachi),https://maps.google.com/?cid=9306602608416801558&g_mp=CiVnb29nbGUubWFwcy5wbGFjZXMudjEuUGxhY2VzLkdldFBsYWNlEAIYBCAA,Sharfabad,PRICE_LEVEL_MODERATE,24.8872344,67.0667351,Cafe,TRUE,TRUE,TRUE,FALSE,TRUE,TRUE,FALSE,TRUE,TRUE,FALSE,FALSE,TRUE,TRUE,FALSE,TRUE,TRUE,TRUE,TRUE,FALSE,FALSE,FALSE,TRUE,FALSE,4.6
Monarca,https://maps.google.com/?cid=14998194200600218977&g_mp=CiVnb29nbGUubWFwcy5wbGFjZXMudjEuUGxhY2VzLkdldFBsYWNlEAIYBCAA,DHA,PRICE_LEVEL_MODERATE,24.7900618,67.0758348,Restaurant,TRUE,TRUE,TRUE,TRUE,FALSE,TRUE,TRUE,TRUE,TRUE,FALSE,FALSE,TRUE,TRUE,FALSE,TRUE,TRUE,TRUE,TRUE,FALSE,FALSE,FALSE,TRUE,FALSE,4.6
S. Abdul Khaliq,https://maps.google.com/?cid=7143238616878180967&g_mp=CiVnb29nbGUubWFwcy5wbGFjZXMudjEuUGxhY2VzLkdldFBsYWNlEAIYBCAA,Clifton,PRICE_LEVEL_MODERATE,24.8270664,67.0325036,Buffet Restaurant,TRUE,TRUE,TRUE,FALSE,TRUE,FALSE,FALSE,FALSE,TRUE,FALSE,FALSE,FALSE,FALSE,FALSE,FALSE,TRUE,FALSE,TRUE,FALSE,FALSE,FALSE,FALSE,FALSE,4.6
Casbah,https://maps.google.com/?cid=12628209215934939651&g_mp=CiVnb29nbGUubWFwcy5wbGFjZXMudjEuUGxhY2VzLkdldFBsYWNlEAIYBCAA,Lalazar,PRICE_LEVEL_MODERATE,24.8433282,66.995514,Restaurant,TRUE,TRUE,TRUE,TRUE,FALSE,TRUE,TRUE,TRUE,TRUE,TRUE,FALSE,TRUE,TRUE,FALSE,TRUE,TRUE,TRUE,TRUE,FALSE,TRUE,FALSE,FALSE,FALSE,4.6
Bukhari Arabic Shawarma,https://maps.google.com/?cid=4206972931166091655&g_mp=CiVnb29nbGUubWFwcy5wbGFjZXMudjEuUGxhY2VzLkdldFBsYWNlEAIYBCAA,Central Karachi,PRICE_LEVEL_MODERATE,24.9128125,67.1255625,Restaurant,TRUE,TRUE,TRUE,FALSE,FALSE,FALSE,TRUE,FALSE,FALSE,TRUE,FALSE,TRUE,TRUE,FALSE,FALSE,FALSE,TRUE,TRUE,FALSE,FALSE,FALSE,TRUE,FALSE,4.6
SIKANDAR FISH POINT,https://maps.google.com/?cid=13327691155053300312&g_mp=CiVnb29nbGUubWFwcy5wbGFjZXMudjEuUGxhY2VzLkdldFBsYWNlEAIYBCAA,Burns Road,PRICE_LEVEL_MODERATE,24.8558691,67.0152934,Restaurant,TRUE,TRUE,TRUE,FALSE,FALSE,FALSE,TRUE,FALSE,FALSE,TRUE,FALSE,FALSE,TRUE,FALSE,FALSE,FALSE,TRUE,FALSE,TRUE,FALSE,FALSE,TRUE,FALSE,4.6
NEW DISCO BAKERY,https://maps.google.com/?cid=5172261834995052194&g_mp=CiVnb29nbGUubWFwcy5wbGFjZXMudjEuUGxhY2VzLkdldFBsYWNlEAIYBCAA,Kharadar,PRICE_LEVEL_MODERATE,24.8592514,67.0077778,Bakery,FALSE,TRUE,TRUE,FALSE,FALSE,FALSE,FALSE,FALSE,FALSE,FALSE,FALSE,FALSE,FALSE,FALSE,FALSE,FALSE,FALSE,FALSE,TRUE,FALSE,FALSE,TRUE,FALSE,4.6
eatalia,https://maps.google.com/?cid=3474400282549582169&g_mp=CiVnb29nbGUubWFwcy5wbGFjZXMudjEuUGxhY2VzLkdldFBsYWNlEAIYBCAA,Central Karachi,PRICE_LEVEL_MODERATE,24.8741258,67.0907862,Italian Restaurant,TRUE,TRUE,TRUE,FALSE,FALSE,FALSE,TRUE,FALSE,TRUE,FALSE,FALSE,TRUE,TRUE,FALSE,FALSE,FALSE,TRUE,TRUE,FALSE,FALSE,FALSE,TRUE,FALSE,4.6
Kolachi Restaurant,https://maps.google.com/?cid=14526532773562860250&g_mp=CiVnb29nbGUubWFwcy5wbGFjZXMudjEuUGxhY2VzLkdldFBsYWNlEAIYBCAA,DHA,PRICE_LEVEL_MODERATE,24.7567907,67.0950609,Restaurant,TRUE,TRUE,TRUE,TRUE,TRUE,TRUE,TRUE,TRUE,TRUE,TRUE,FALSE,TRUE,TRUE,FALSE,TRUE,TRUE,TRUE,TRUE,FALSE,TRUE,FALSE,FALSE,FALSE,4.5
Rehmat-e-Shereen,https://maps.google.com/?cid=4095567457703761029&g_mp=CiVnb29nbGUubWFwcy5wbGFjZXMudjEuUGxhY2VzLkdldFBsYWNlEAIYBCAA,PECHS,PRICE_LEVEL_MODERATE,24.8683043,67.0574311,Bakery,TRUE,TRUE,TRUE,FALSE,TRUE,FALSE,FALSE,FALSE,FALSE,FALSE,FALSE,FALSE,FALSE,FALSE,TRUE,FALSE,TRUE,TRUE,FALSE,FALSE,FALSE,FALSE,FALSE,4.5
Kolachi Restaurant,https://maps.google.com/?cid=12977851399156681668&g_mp=CiVnb29nbGUubWFwcy5wbGFjZXMudjEuUGxhY2VzLkdldFBsYWNlEAIYBCAA,Clifton,PRICE_LEVEL_MODERATE,24.8239715,67.0356279,Restaurant,TRUE,TRUE,TRUE,TRUE,FALSE,TRUE,TRUE,TRUE,TRUE,TRUE,FALSE,TRUE,TRUE,FALSE,TRUE,TRUE,TRUE,TRUE,FALSE,TRUE,FALSE,FALSE,FALSE,4.5
Broadway Pizza - Clifton,https://maps.google.com/?cid=11035644893276113194&g_mp=CiVnb29nbGUubWFwcy5wbGFjZXMudjEuUGxhY2VzLkdldFBsYWNlEAIYBCAA,Clifton,PRICE_LEVEL_MODERATE,24.8263772,67.0356217,Pizza Restaurant,TRUE,TRUE,TRUE,TRUE,TRUE,TRUE,TRUE,FALSE,TRUE,FALSE,FALSE,TRUE,TRUE,FALSE,TRUE,TRUE,TRUE,TRUE,FALSE,FALSE,TRUE,FALSE,FALSE,4.5
Iceberg Ice Cream,https://maps.google.com/?cid=4101357591641572281&g_mp=CiVnb29nbGUubWFwcy5wbGFjZXMudjEuUGxhY2VzLkdldFBsYWNlEAIYBCAA,Saddar,PRICE_LEVEL_INEXPENSIVE,24.8576281,67.0309967,Dessert Shop,TRUE,TRUE,TRUE,FALSE,FALSE,FALSE,FALSE,FALSE,FALSE,FALSE,FALSE,TRUE,TRUE,FALSE,FALSE,FALSE,FALSE,TRUE,FALSE,FALSE,FALSE,FALSE,FALSE,4.5
Pizza Max,https://maps.google.com/?cid=13917101618016614489&g_mp=CiVnb29nbGUubWFwcy5wbGFjZXMudjEuUGxhY2VzLkdldFBsYWNlEAIYBCAA,Malir,PRICE_LEVEL_MODERATE,24.8910781,67.1878445,Pizza Restaurant,TRUE,TRUE,TRUE,TRUE,FALSE,TRUE,TRUE,FALSE,TRUE,FALSE,FALSE,TRUE,TRUE,FALSE,FALSE,TRUE,TRUE,TRUE,FALSE,FALSE,FALSE,TRUE,FALSE,4.5
Chai Chatt,https://maps.google.com/?cid=15075791492454679&g_mp=CiVnb29nbGUubWFwcy5wbGFjZXMudjEuUGxhY2VzLkdldFBsYWNlEAIYBCAA,PECHS,PRICE_LEVEL_MODERATE,24.8661856,67.077431,Restaurant,TRUE,TRUE,TRUE,TRUE,TRUE,TRUE,TRUE,TRUE,TRUE,TRUE,FALSE,TRUE,TRUE,FALSE,TRUE,TRUE,TRUE,TRUE,FALSE,FALSE,FALSE,TRUE,FALSE,4.5
Caff Praha - Estreet,https://maps.google.com/?cid=8944489959285153143&g_mp=CiVnb29nbGUubWFwcy5wbGFjZXMudjEuUGxhY2VzLkdldFBsYWNlEAIYBCAA,Clifton,PRICE_LEVEL_MODERATE,24.8040361,67.0327324,Cafe,TRUE,TRUE,TRUE,TRUE,TRUE,TRUE,TRUE,TRUE,TRUE,TRUE,TRUE,TRUE,TRUE,TRUE,TRUE,TRUE,TRUE,TRUE,FALSE,FALSE,FALSE,FALSE,FALSE,4.5
Broadway Pizza - Korangi,https://maps.google.com/?cid=7665370364092609513&g_mp=CiVnb29nbGUubWFwcy5wbGFjZXMudjEuUGxhY2VzLkdldFBsYWNlEAIYBCAA,Korangi,PRICE_LEVEL_MODERATE,24.8244319,67.1442751,Pizza Restaurant,TRUE,TRUE,TRUE,TRUE,TRUE,TRUE,TRUE,FALSE,TRUE,FALSE,FALSE,TRUE,TRUE,FALSE,TRUE,TRUE,TRUE,TRUE,FALSE,FALSE,FALSE,TRUE,FALSE,4.5
Kanteen,https://maps.google.com/?cid=2701236165243867248&g_mp=CiVnb29nbGUubWFwcy5wbGFjZXMudjEuUGxhY2VzLkdldFBsYWNlEAIYBCAA,Tipu Sultan,PRICE_LEVEL_MODERATE,24.8682077,67.0780755,Restaurant,TRUE,TRUE,TRUE,TRUE,TRUE,TRUE,TRUE,TRUE,TRUE,TRUE,FALSE,TRUE,TRUE,FALSE,TRUE,FALSE,TRUE,TRUE,FALSE,TRUE,FALSE,TRUE,FALSE,4.5
Testkitchen by Okra,https://maps.google.com/?cid=11649868432740395889&g_mp=CiVnb29nbGUubWFwcy5wbGFjZXMudjEuUGxhY2VzLkdldFBsYWNlEAIYBCAA,DHA,PRICE_LEVEL_MODERATE,24.8184946,67.039458,Restaurant,TRUE,TRUE,TRUE,TRUE,TRUE,TRUE,TRUE,TRUE,TRUE,FALSE,FALSE,FALSE,TRUE,FALSE,TRUE,FALSE,TRUE,TRUE,FALSE,TRUE,FALSE,FALSE,TRUE,4.5
Dynasty,https://maps.google.com/?cid=9499879016219295539&g_mp=CiVnb29nbGUubWFwcy5wbGFjZXMudjEuUGxhY2VzLkdldFBsYWNlEAIYBCAA,Saddar,PRICE_LEVEL_MODERATE,24.85283,67.03223,Chinese Restaurant,TRUE,TRUE,TRUE,TRUE,FALSE,TRUE,TRUE,TRUE,TRUE,FALSE,FALSE,TRUE,TRUE,FALSE,TRUE,TRUE,TRUE,TRUE,FALSE,TRUE,FALSE,FALSE,FALSE,4.5
The Coffee Bean & Tea Leaf,https://maps.google.com/?cid=7747827052120866731&g_mp=CiVnb29nbGUubWFwcy5wbGFjZXMudjEuUGxhY2VzLkdldFBsYWNlEAIYBCAA,Tipu Sultan,PRICE_LEVEL_MODERATE,24.8662187,67.0778139,Cafe,TRUE,TRUE,TRUE,FALSE,TRUE,TRUE,FALSE,TRUE,TRUE,TRUE,FALSE,TRUE,TRUE,FALSE,TRUE,FALSE,FALSE,TRUE,FALSE,FALSE,FALSE,TRUE,FALSE,4.5
Al Madina Cold & Wali Baba Juice,https://maps.google.com/?cid=10726658620753207311&g_mp=CiVnb29nbGUubWFwcy5wbGFjZXMudjEuUGxhY2VzLkdldFBsYWNlEAIYBCAA,Saddar,PRICE_LEVEL_MODERATE,24.8598992,67.031133,Juice Shop,TRUE,TRUE,TRUE,FALSE,FALSE,FALSE,FALSE,FALSE,FALSE,FALSE,FALSE,TRUE,TRUE,FALSE,FALSE,FALSE,TRUE,FALSE,TRUE,FALSE,FALSE,TRUE,FALSE,4.5
Eatalia Pizzeria,https://maps.google.com/?cid=5706446295912818673&g_mp=CiVnb29nbGUubWFwcy5wbGFjZXMudjEuUGxhY2VzLkdldFBsYWNlEAIYBCAA,DHA,PRICE_LEVEL_MODERATE,24.7876902,67.0810094,Italian Restaurant,TRUE,TRUE,TRUE,TRUE,FALSE,TRUE,TRUE,TRUE,TRUE,TRUE,FALSE,TRUE,TRUE,FALSE,TRUE,TRUE,TRUE,TRUE,FALSE,FALSE,FALSE,TRUE,FALSE,4.5
K Town Co.,https://maps.google.com/?cid=16603642399353779508&g_mp=CiVnb29nbGUubWFwcy5wbGFjZXMudjEuUGxhY2VzLkdldFBsYWNlEAIYBCAA,DHA,PRICE_LEVEL_MODERATE,24.7871634,67.0569972,Fast Food Restaurant,TRUE,TRUE,TRUE,FALSE,FALSE,TRUE,TRUE,TRUE,TRUE,TRUE,FALSE,TRUE,FALSE,FALSE,TRUE,TRUE,TRUE,TRUE,FALSE,FALSE,TRUE,FALSE,FALSE,4.5
Ktor,https://maps.google.com/?cid=18383227149642347239&g_mp=CiVnb29nbGUubWFwcy5wbGFjZXMudjEuUGxhY2VzLkdldFBsYWNlEAIYBCAA,Clifton,PRICE_LEVEL_MODERATE,24.8046483,67.0302564,Restaurant,FALSE,FALSE,TRUE,FALSE,FALSE,FALSE,FALSE,FALSE,FALSE,FALSE,FALSE,FALSE,FALSE,FALSE,FALSE,TRUE,FALSE,TRUE,FALSE,FALSE,FALSE,TRUE,FALSE,4.5
Abdul Majid BBQ Shanu,https://maps.google.com/?cid=3668456690561683812&g_mp=CiVnb29nbGUubWFwcy5wbGFjZXMudjEuUGxhY2VzLkdldFBsYWNlEAIYBCAA,Rangiwara,PRICE_LEVEL_INEXPENSIVE,24.8690495,66.9964367,Restaurant,TRUE,TRUE,TRUE,FALSE,FALSE,FALSE,TRUE,FALSE,FALSE,TRUE,FALSE,TRUE,TRUE,FALSE,FALSE,TRUE,TRUE,FALSE,TRUE,FALSE,FALSE,FALSE,TRUE,4.5
Fish Market Restaurant,https://maps.google.com/?cid=16074726609726803184&g_mp=CiVnb29nbGUubWFwcy5wbGFjZXMudjEuUGxhY2VzLkdldFBsYWNlEAIYBCAA,Federal B Area,PRICE_LEVEL_MODERATE,24.9382045,67.0781369,Restaurant,TRUE,TRUE,TRUE,TRUE,FALSE,FALSE,TRUE,FALSE,FALSE,TRUE,FALSE,FALSE,TRUE,FALSE,FALSE,FALSE,TRUE,FALSE,TRUE,FALSE,FALSE,TRUE,FALSE,4.5
Karachi Brasserie,https://maps.google.com/?cid=13708088318793852472&g_mp=CiVnb29nbGUubWFwcy5wbGFjZXMudjEuUGxhY2VzLkdldFBsYWNlEAIYBCAA,Saddar,PRICE_LEVEL_MODERATE,24.8564291,67.0299552,Restaurant,TRUE,TRUE,TRUE,TRUE,FALSE,TRUE,TRUE,TRUE,TRUE,FALSE,FALSE,TRUE,TRUE,FALSE,TRUE,FALSE,TRUE,TRUE,FALSE,FALSE,FALSE,FALSE,FALSE,4.5
Mood Coffee,https://maps.google.com/?cid=18022019853324027596&g_mp=CiVnb29nbGUubWFwcy5wbGFjZXMudjEuUGxhY2VzLkdldFBsYWNlEAIYBCAA,DHA,PRICE_LEVEL_MODERATE,24.7909521,67.0659455,Cafe,TRUE,TRUE,TRUE,FALSE,FALSE,TRUE,FALSE,TRUE,TRUE,FALSE,FALSE,TRUE,TRUE,FALSE,TRUE,TRUE,TRUE,TRUE,FALSE,TRUE,FALSE,TRUE,FALSE,4.5
Foods Spot,https://maps.google.com/?cid=3816927378630413314&g_mp=CiVnb29nbGUubWFwcy5wbGFjZXMudjEuUGxhY2VzLkdldFBsYWNlEAIYBCAA,Federal B Area,PRICE_LEVEL_MODERATE,24.9268539,67.0726341,Restaurant,TRUE,TRUE,TRUE,TRUE,FALSE,FALSE,TRUE,FALSE,FALSE,FALSE,FALSE,TRUE,TRUE,FALSE,FALSE,TRUE,TRUE,TRUE,FALSE,FALSE,FALSE,TRUE,FALSE,4.5
Helados Ice Cream,https://maps.google.com/?cid=8036573673192355702&g_mp=CiVnb29nbGUubWFwcy5wbGFjZXMudjEuUGxhY2VzLkdldFBsYWNlEAIYBCAA,Burns Road,PRICE_LEVEL_MODERATE,24.8570941,67.0169385,Dessert Shop,FALSE,TRUE,TRUE,FALSE,FALSE,FALSE,FALSE,FALSE,FALSE,FALSE,FALSE,TRUE,TRUE,FALSE,FALSE,FALSE,FALSE,TRUE,FALSE,FALSE,FALSE,TRUE,FALSE,4.5
Mr.Potato,https://maps.google.com/?cid=10226114451976361304&g_mp=CiVnb29nbGUubWFwcy5wbGFjZXMudjEuUGxhY2VzLkdldFBsYWNlEAIYBCAA,Saddar,PRICE_LEVEL_MODERATE,24.8653459,67.0257474,Restaurant,TRUE,TRUE,TRUE,FALSE,FALSE,FALSE,TRUE,FALSE,FALSE,FALSE,FALSE,TRUE,TRUE,FALSE,FALSE,TRUE,TRUE,TRUE,FALSE,FALSE,FALSE,TRUE,FALSE,4.5
Azeem abdullah BarBQ and Roll Point,https://maps.google.com/?cid=12649272285723711905&g_mp=CiVnb29nbGUubWFwcy5wbGFjZXMudjEuUGxhY2VzLkdldFBsYWNlEAIYBCAA,Liaquatabad,PRICE_LEVEL_MODERATE,24.9052486,67.0406802,Barbecue Restaurant,TRUE,TRUE,TRUE,FALSE,FALSE,FALSE,TRUE,FALSE,FALSE,TRUE,FALSE,TRUE,TRUE,FALSE,FALSE,TRUE,TRUE,FALSE,TRUE,FALSE,FALSE,TRUE,FALSE,4.5
Filmy Chai,https://maps.google.com/?cid=14462874146009577061&g_mp=CiVnb29nbGUubWFwcy5wbGFjZXMudjEuUGxhY2VzLkdldFBsYWNlEAIYBCAA,Orangi Town,PRICE_LEVEL_MODERATE,24.9415079,66.9947796,Restaurant,TRUE,TRUE,TRUE,TRUE,FALSE,FALSE,TRUE,TRUE,TRUE,FALSE,TRUE,TRUE,TRUE,TRUE,FALSE,TRUE,TRUE,TRUE,FALSE,TRUE,FALSE,TRUE,FALSE,4.5
New York Guys,https://maps.google.com/?cid=16382574420244720569&g_mp=CiVnb29nbGUubWFwcy5wbGFjZXMudjEuUGxhY2VzLkdldFBsYWNlEAIYBCAA,MACHS,PRICE_LEVEL_MODERATE,24.8742086,67.0877606,American Restaurant,TRUE,TRUE,TRUE,FALSE,FALSE,FALSE,TRUE,FALSE,FALSE,FALSE,FALSE,TRUE,TRUE,FALSE,FALSE,TRUE,FALSE,TRUE,FALSE,FALSE,FALSE,TRUE,FALSE,4.5
Buhfay Bistro,https://maps.google.com/?cid=15781730997297283338&g_mp=CiVnb29nbGUubWFwcy5wbGFjZXMudjEuUGxhY2VzLkdldFBsYWNlEAIYBCAA,Gulistan-e-Johar,PRICE_LEVEL_MODERATE,24.9134929,67.1200244,Restaurant,TRUE,TRUE,TRUE,TRUE,TRUE,TRUE,TRUE,FALSE,TRUE,FALSE,FALSE,TRUE,TRUE,FALSE,TRUE,TRUE,TRUE,TRUE,FALSE,FALSE,FALSE,TRUE,FALSE,4.5
Cafe Hill View,https://maps.google.com/?cid=13683093950454438213&g_mp=CiVnb29nbGUubWFwcy5wbGFjZXMudjEuUGxhY2VzLkdldFBsYWNlEAIYBCAA,Central Karachi,PRICE_LEVEL_MODERATE,24.9706778,67.0465418,Cafe,TRUE,FALSE,TRUE,FALSE,FALSE,FALSE,FALSE,TRUE,TRUE,TRUE,FALSE,FALSE,TRUE,FALSE,FALSE,FALSE,TRUE,TRUE,FALSE,FALSE,TRUE,FALSE,FALSE,4.5
Qalandari Pulao,https://maps.google.com/?cid=5731892214461885495&g_mp=CiVnb29nbGUubWFwcy5wbGFjZXMudjEuUGxhY2VzLkdldFBsYWNlEAIYBCAA,Liaquatabad,PRICE_LEVEL_MODERATE,24.9050558,67.0426893,Restaurant,TRUE,TRUE,TRUE,FALSE,FALSE,TRUE,TRUE,FALSE,FALSE,FALSE,FALSE,FALSE,TRUE,FALSE,FALSE,FALSE,TRUE,FALSE,TRUE,FALSE,FALSE,TRUE,FALSE,4.5
Karachi Allah Wala Restaurant & Bar B Q,https://maps.google.com/?cid=939369387613965040&g_mp=CiVnb29nbGUubWFwcy5wbGFjZXMudjEuUGxhY2VzLkdldFBsYWNlEAIYBCAA,Federal B Area,PRICE_LEVEL_MODERATE,24.9360394,67.0844496,Restaurant,TRUE,TRUE,TRUE,FALSE,FALSE,TRUE,TRUE,FALSE,FALSE,FALSE,FALSE,TRUE,TRUE,FALSE,FALSE,FALSE,TRUE,FALSE,TRUE,FALSE,FALSE,TRUE,FALSE,4.5
Qalandri Fish Point,https://maps.google.com/?cid=10745859619402765811&g_mp=CiVnb29nbGUubWFwcy5wbGFjZXMudjEuUGxhY2VzLkdldFBsYWNlEAIYBCAA,Baghdadi,PRICE_LEVEL_MODERATE,24.861068,66.9993913,Seafood Restaurant,TRUE,TRUE,TRUE,FALSE,FALSE,FALSE,TRUE,FALSE,FALSE,TRUE,FALSE,FALSE,TRUE,FALSE,FALSE,TRUE,TRUE,FALSE,TRUE,FALSE,FALSE,FALSE,TRUE,4.5
Nizami Polao,https://maps.google.com/?cid=7552796878479606854&g_mp=CiVnb29nbGUubWFwcy5wbGFjZXMudjEuUGxhY2VzLkdldFBsYWNlEAIYBCAA,Orangi Town,PRICE_LEVEL_MODERATE,24.9411494,67.013077,Restaurant,TRUE,TRUE,TRUE,FALSE,FALSE,FALSE,TRUE,FALSE,FALSE,FALSE,FALSE,FALSE,TRUE,FALSE,FALSE,FALSE,TRUE,FALSE,TRUE,FALSE,FALSE,FALSE,FALSE,4.5
LalQila Restaurant Karachi,https://maps.google.com/?cid=17907170766683384445&g_mp=CiVnb29nbGUubWFwcy5wbGFjZXMudjEuUGxhY2VzLkdldFBsYWNlEAIYBCAA,MACHS,PRICE_LEVEL_EXPENSIVE,24.8722755,67.0907754,Buffet Restaurant,TRUE,TRUE,TRUE,TRUE,FALSE,TRUE,TRUE,TRUE,TRUE,TRUE,FALSE,TRUE,TRUE,TRUE,TRUE,TRUE,TRUE,TRUE,FALSE,TRUE,FALSE,FALSE,FALSE,4.4
Shaikh Abdul Ghaffar Kabab House,https://maps.google.com/?cid=10854103099891770500&g_mp=CiVnb29nbGUubWFwcy5wbGFjZXMudjEuUGxhY2VzLkdldFBsYWNlEAIYBCAA,Central Karachi,PRICE_LEVEL_MODERATE,24.8765964,67.0659988,Barbecue Restaurant,TRUE,TRUE,TRUE,TRUE,FALSE,TRUE,TRUE,FALSE,TRUE,TRUE,FALSE,TRUE,TRUE,FALSE,TRUE,TRUE,TRUE,TRUE,FALSE,FALSE,FALSE,TRUE,FALSE,4.4
Ridan House of Mandi,https://maps.google.com/?cid=18446735453716235521&g_mp=CiVnb29nbGUubWFwcy5wbGFjZXMudjEuUGxhY2VzLkdldFBsYWNlEAIYBCAA,PECHS,PRICE_LEVEL_EXPENSIVE,24.8779055,67.059467,Middle Eastern Restaurant,TRUE,TRUE,TRUE,TRUE,TRUE,TRUE,TRUE,FALSE,TRUE,FALSE,FALSE,TRUE,TRUE,FALSE,TRUE,TRUE,TRUE,TRUE,FALSE,TRUE,FALSE,TRUE,FALSE,4.4
Mandi House,https://maps.google.com/?cid=7157558834277326572&g_mp=CiVnb29nbGUubWFwcy5wbGFjZXMudjEuUGxhY2VzLkdldFBsYWNlEAIYBCAA,PECHS,PRICE_LEVEL_MODERATE,24.8787191,67.0659379,Middle Eastern Restaurant,TRUE,TRUE,TRUE,TRUE,FALSE,TRUE,TRUE,FALSE,TRUE,FALSE,FALSE,TRUE,TRUE,FALSE,TRUE,TRUE,TRUE,TRUE,FALSE,FALSE,FALSE,FALSE,FALSE,4.4
Ginsoy - SMCHS Branch,https://maps.google.com/?cid=7592302608371580752&g_mp=CiVnb29nbGUubWFwcy5wbGFjZXMudjEuUGxhY2VzLkdldFBsYWNlEAIYBCAA,Sindhi Muslim,PRICE_LEVEL_MODERATE,24.8640325,67.0549276,Chinese Restaurant,TRUE,TRUE,TRUE,TRUE,TRUE,TRUE,TRUE,TRUE,TRUE,FALSE,FALSE,TRUE,TRUE,FALSE,TRUE,TRUE,TRUE,TRUE,FALSE,FALSE,FALSE,FALSE,FALSE,4.4
Zeytin,https://maps.google.com/?cid=10912334761040811839&g_mp=CiVnb29nbGUubWFwcy5wbGFjZXMudjEuUGxhY2VzLkdldFBsYWNlEAIYBCAA,PECHS,PRICE_LEVEL_MODERATE,24.8808233,67.0623402,Turkish Restaurant,TRUE,TRUE,TRUE,TRUE,FALSE,TRUE,TRUE,TRUE,TRUE,FALSE,FALSE,TRUE,TRUE,FALSE,TRUE,TRUE,TRUE,TRUE,FALSE,FALSE,FALSE,FALSE,FALSE,4.4
Koyla Chai,https://maps.google.com/?cid=11132170422864808356&g_mp=CiVnb29nbGUubWFwcy5wbGFjZXMudjEuUGxhY2VzLkdldFBsYWNlEAIYBCAA,Clifton,PRICE_LEVEL_MODERATE,24.8158727,67.0181262,Restaurant,TRUE,FALSE,TRUE,TRUE,TRUE,TRUE,TRUE,TRUE,TRUE,TRUE,TRUE,TRUE,TRUE,TRUE,TRUE,TRUE,TRUE,TRUE,FALSE,TRUE,FALSE,TRUE,FALSE,4.4
Peshawari Ice Cream (Official),https://maps.google.com/?cid=16483279540031151258&g_mp=CiVnb29nbGUubWFwcy5wbGFjZXMudjEuUGxhY2VzLkdldFBsYWNlEAIYBCAA,Saddar,PRICE_LEVEL_MODERATE,24.8612972,67.0282214,Dessert Shop,TRUE,TRUE,TRUE,FALSE,FALSE,FALSE,FALSE,FALSE,FALSE,FALSE,FALSE,TRUE,TRUE,FALSE,FALSE,FALSE,TRUE,FALSE,TRUE,FALSE,FALSE,TRUE,FALSE,4.4
Kababjees Restaurant & Bakers - Super Highway,https://maps.google.com/?cid=6342457281947514608&g_mp=CiVnb29nbGUubWFwcy5wbGFjZXMudjEuUGxhY2VzLkdldFBsYWNlEAIYBCAA,Scheme 33,PRICE_LEVEL_EXPENSIVE,24.9746875,67.1183125,Restaurant,TRUE,TRUE,TRUE,TRUE,FALSE,TRUE,TRUE,TRUE,TRUE,TRUE,FALSE,TRUE,TRUE,FALSE,TRUE,TRUE,TRUE,TRUE,FALSE,TRUE,FALSE,TRUE,FALSE,4.4
Espresso Tipu Sultan,https://maps.google.com/?cid=11427515101103203247&g_mp=CiVnb29nbGUubWFwcy5wbGFjZXMudjEuUGxhY2VzLkdldFBsYWNlEAIYBCAA,Tipu Sultan,PRICE_LEVEL_EXPENSIVE,24.8677428,67.0776087,Cafe,TRUE,TRUE,TRUE,TRUE,TRUE,TRUE,TRUE,TRUE,TRUE,FALSE,FALSE,TRUE,TRUE,TRUE,TRUE,TRUE,TRUE,TRUE,FALSE,TRUE,FALSE,TRUE,FALSE,4.4
Friendzz Biryani Centre,https://maps.google.com/?cid=8038878573657473794&g_mp=CiVnb29nbGUubWFwcy5wbGFjZXMudjEuUGxhY2VzLkdldFBsYWNlEAIYBCAA,Korangi,PRICE_LEVEL_INEXPENSIVE,24.8291329,67.1216667,Restaurant,TRUE,TRUE,TRUE,TRUE,FALSE,TRUE,TRUE,FALSE,TRUE,FALSE,FALSE,TRUE,TRUE,FALSE,FALSE,TRUE,TRUE,TRUE,FALSE,FALSE,FALSE,FALSE,FALSE,4.4
Mandi House - Highway,https://maps.google.com/?cid=3163346416690675468&g_mp=CiVnb29nbGUubWFwcy5wbGFjZXMudjEuUGxhY2VzLkdldFBsYWNlEAIYBCAA,Scheme 33,PRICE_LEVEL_MODERATE,24.9814882,67.1250979,Restaurant,TRUE,TRUE,TRUE,TRUE,FALSE,TRUE,TRUE,FALSE,TRUE,TRUE,FALSE,TRUE,TRUE,FALSE,TRUE,TRUE,TRUE,TRUE,FALSE,TRUE,FALSE,TRUE,FALSE,4.4
Haji Idrees Nihari,https://maps.google.com/?cid=6521040928282113581&g_mp=CiVnb29nbGUubWFwcy5wbGFjZXMudjEuUGxhY2VzLkdldFBsYWNlEAIYBCAA,Central Karachi,PRICE_LEVEL_INEXPENSIVE,24.8606293,67.0135006,Restaurant,TRUE,TRUE,TRUE,FALSE,TRUE,TRUE,TRUE,FALSE,FALSE,TRUE,FALSE,FALSE,TRUE,FALSE,FALSE,TRUE,TRUE,FALSE,TRUE,FALSE,FALSE,FALSE,FALSE,4.4
Burger O'Clock - SMCHS,https://maps.google.com/?cid=1517073353979325592&g_mp=CiVnb29nbGUubWFwcy5wbGFjZXMudjEuUGxhY2VzLkdldFBsYWNlEAIYBCAA,Sindhi Muslim,PRICE_LEVEL_MODERATE,24.8637219,67.0546773,Fast Food Restaurant,TRUE,TRUE,TRUE,FALSE,FALSE,TRUE,TRUE,FALSE,TRUE,TRUE,FALSE,TRUE,TRUE,FALSE,TRUE,FALSE,FALSE,TRUE,FALSE,FALSE,FALSE,TRUE,FALSE,4.4
Asli Peshawari Soup ( ),https://maps.google.com/?cid=10602339110446493836&g_mp=CiVnb29nbGUubWFwcy5wbGFjZXMudjEuUGxhY2VzLkdldFBsYWNlEAIYBCAA,Nazimabad,PRICE_LEVEL_INEXPENSIVE,24.922499,67.0247031,Restaurant,TRUE,TRUE,TRUE,FALSE,FALSE,FALSE,FALSE,FALSE,FALSE,TRUE,FALSE,TRUE,TRUE,FALSE,FALSE,TRUE,TRUE,FALSE,TRUE,FALSE,FALSE,TRUE,FALSE,4.4
Creamello Ice Cream - Gulshan,https://maps.google.com/?cid=643155269310167386&g_mp=CiVnb29nbGUubWFwcy5wbGFjZXMudjEuUGxhY2VzLkdldFBsYWNlEAIYBCAA,Gulshan-e-Iqbal,PRICE_LEVEL_MODERATE,24.930814,67.0993641,Dessert Shop,TRUE,TRUE,TRUE,FALSE,FALSE,FALSE,FALSE,TRUE,FALSE,FALSE,FALSE,TRUE,TRUE,FALSE,TRUE,TRUE,TRUE,TRUE,FALSE,TRUE,FALSE,TRUE,FALSE,4.4
Double Cheeze North Nazimabad Branch,https://maps.google.com/?cid=6090879030521214224&g_mp=CiVnb29nbGUubWFwcy5wbGFjZXMudjEuUGxhY2VzLkdldFBsYWNlEAIYBCAA,Nazimabad,PRICE_LEVEL_MODERATE,24.9390725,67.0436664,Fast Food Restaurant,TRUE,TRUE,TRUE,FALSE,TRUE,TRUE,TRUE,TRUE,TRUE,FALSE,FALSE,TRUE,TRUE,FALSE,TRUE,TRUE,TRUE,TRUE,FALSE,FALSE,FALSE,TRUE,FALSE,4.4
Cafe Abaseen,https://maps.google.com/?cid=5090415776535270946&g_mp=CiVnb29nbGUubWFwcy5wbGFjZXMudjEuUGxhY2VzLkdldFBsYWNlEAIYBCAA,Korangi,PRICE_LEVEL_INEXPENSIVE,24.8159258,67.109322,Restaurant,TRUE,TRUE,TRUE,FALSE,TRUE,TRUE,TRUE,TRUE,FALSE,TRUE,FALSE,TRUE,TRUE,FALSE,FALSE,TRUE,TRUE,FALSE,TRUE,TRUE,FALSE,TRUE,FALSE,4.4
Mamu Fish Grill Original,https://maps.google.com/?cid=17717724781143051767&g_mp=CiVnb29nbGUubWFwcy5wbGFjZXMudjEuUGxhY2VzLkdldFBsYWNlEAIYBCAA,Central Karachi,PRICE_LEVEL_MODERATE,24.871327,67.0600259,Restaurant,TRUE,TRUE,TRUE,FALSE,FALSE,TRUE,TRUE,FALSE,FALSE,TRUE,FALSE,TRUE,TRUE,FALSE,FALSE,FALSE,TRUE,TRUE,FALSE,FALSE,FALSE,TRUE,FALSE,4.4
Cafe Siraj,https://maps.google.com/?cid=11799741526543265420&g_mp=CiVnb29nbGUubWFwcy5wbGFjZXMudjEuUGxhY2VzLkdldFBsYWNlEAIYBCAA,Liaquatabad,PRICE_LEVEL_INEXPENSIVE,24.90922,67.0432348,Cafe,TRUE,TRUE,TRUE,FALSE,TRUE,FALSE,FALSE,TRUE,FALSE,TRUE,FALSE,FALSE,TRUE,FALSE,FALSE,TRUE,TRUE,FALSE,TRUE,FALSE,TRUE,FALSE,FALSE,4.4
Sakura,https://maps.google.com/?cid=7269121219945355889&g_mp=CiVnb29nbGUubWFwcy5wbGFjZXMudjEuUGxhY2VzLkdldFBsYWNlEAIYBCAA,Central Karachi,PRICE_LEVEL_VERY_EXPENSIVE,24.8476037,67.0254641,Restaurant,TRUE,TRUE,TRUE,TRUE,TRUE,TRUE,TRUE,TRUE,TRUE,FALSE,FALSE,TRUE,TRUE,FALSE,TRUE,TRUE,TRUE,TRUE,FALSE,TRUE,FALSE,FALSE,FALSE,4.4
New Sadabahar Restaurant,https://maps.google.com/?cid=4142818847640138366&g_mp=CiVnb29nbGUubWFwcy5wbGFjZXMudjEuUGxhY2VzLkdldFBsYWNlEAIYBCAA,Bahadurabad,PRICE_LEVEL_INEXPENSIVE,24.8819411,67.066419,Restaurant,TRUE,TRUE,TRUE,FALSE,TRUE,TRUE,TRUE,FALSE,FALSE,TRUE,FALSE,FALSE,TRUE,FALSE,FALSE,TRUE,TRUE,FALSE,TRUE,FALSE,FALSE,FALSE,FALSE,4.4
Hungry Habibi,https://maps.google.com/?cid=14996156764254902286&g_mp=CiVnb29nbGUubWFwcy5wbGFjZXMudjEuUGxhY2VzLkdldFBsYWNlEAIYBCAA,Sindhi Muslim,PRICE_LEVEL_MODERATE,24.8643539,67.0549448,Restaurant,TRUE,TRUE,TRUE,TRUE,FALSE,TRUE,TRUE,FALSE,TRUE,FALSE,FALSE,TRUE,TRUE,FALSE,TRUE,FALSE,TRUE,TRUE,FALSE,FALSE,FALSE,TRUE,FALSE,4.4
Tea In Binoria Town,https://maps.google.com/?cid=13547426938374842361&g_mp=CiVnb29nbGUubWFwcy5wbGFjZXMudjEuUGxhY2VzLkdldFBsYWNlEAIYBCAA,Jamshed Quarters,PRICE_LEVEL_MODERATE,24.8816993,67.0432266,Food Store,FALSE,TRUE,TRUE,FALSE,FALSE,FALSE,FALSE,FALSE,FALSE,FALSE,FALSE,FALSE,FALSE,FALSE,FALSE,FALSE,FALSE,FALSE,TRUE,FALSE,TRUE,FALSE,FALSE,4.4
Cafe Ignite,https://maps.google.com/?cid=7402118269530013436&g_mp=CiVnb29nbGUubWFwcy5wbGFjZXMudjEuUGxhY2VzLkdldFBsYWNlEAIYBCAA,Central Karachi,PRICE_LEVEL_MODERATE,24.9532037,67.068958,Restaurant,TRUE,TRUE,TRUE,TRUE,FALSE,TRUE,TRUE,TRUE,TRUE,TRUE,FALSE,TRUE,TRUE,FALSE,TRUE,TRUE,TRUE,TRUE,FALSE,FALSE,FALSE,TRUE,FALSE,4.4
Hungry Habibi (D.H.A),https://maps.google.com/?cid=9139801896374948589&g_mp=CiVnb29nbGUubWFwcy5wbGFjZXMudjEuUGxhY2VzLkdldFBsYWNlEAIYBCAA,DHA,PRICE_LEVEL_MODERATE,24.7866865,67.0576583,Restaurant,TRUE,TRUE,TRUE,TRUE,FALSE,TRUE,TRUE,FALSE,TRUE,TRUE,FALSE,TRUE,TRUE,FALSE,TRUE,TRUE,TRUE,TRUE,FALSE,FALSE,FALSE,TRUE,FALSE,4.4
Keamari Sea Food,https://maps.google.com/?cid=17157265275571362163&g_mp=CiVnb29nbGUubWFwcy5wbGFjZXMudjEuUGxhY2VzLkdldFBsYWNlEAIYBCAA,Central Karachi,PRICE_LEVEL_MODERATE,24.8191209,66.9757669,Seafood Restaurant,TRUE,TRUE,TRUE,FALSE,FALSE,FALSE,TRUE,FALSE,FALSE,TRUE,FALSE,TRUE,TRUE,FALSE,FALSE,TRUE,TRUE,FALSE,TRUE,FALSE,FALSE,TRUE,FALSE,4.4
Delizia Bakery Khayaban-e-Roomi,https://maps.google.com/?cid=6990614140804048399&g_mp=CiVnb29nbGUubWFwcy5wbGFjZXMudjEuUGxhY2VzLkdldFBsYWNlEAIYBCAA,Clifton,PRICE_LEVEL_MODERATE,24.8270421,67.0302339,Bakery,FALSE,TRUE,TRUE,FALSE,FALSE,FALSE,FALSE,FALSE,FALSE,FALSE,FALSE,FALSE,FALSE,FALSE,FALSE,TRUE,FALSE,TRUE,FALSE,FALSE,FALSE,FALSE,FALSE,4.4
Chhipa BarbQ Restaurant,https://maps.google.com/?cid=8690462383280121831&g_mp=CiVnb29nbGUubWFwcy5wbGFjZXMudjEuUGxhY2VzLkdldFBsYWNlEAIYBCAA,Central Karachi,PRICE_LEVEL_MODERATE,24.8774328,67.0202884,Restaurant,TRUE,TRUE,TRUE,FALSE,FALSE,TRUE,TRUE,FALSE,FALSE,TRUE,FALSE,FALSE,TRUE,FALSE,FALSE,TRUE,TRUE,FALSE,TRUE,FALSE,FALSE,TRUE,FALSE,4.4
"Best Sweets near me, Al-Mehran Sweets and Rabri Nazimabad Karachi.",https://maps.google.com/?cid=10987167146184365750&g_mp=CiVnb29nbGUubWFwcy5wbGFjZXMudjEuUGxhY2VzLkdldFBsYWNlEAIYBCAA,Nazimabad,PRICE_LEVEL_MODERATE,24.9139524,67.0221392,Dessert Shop,FALSE,TRUE,TRUE,FALSE,FALSE,FALSE,FALSE,FALSE,FALSE,FALSE,FALSE,FALSE,FALSE,FALSE,FALSE,FALSE,TRUE,TRUE,FALSE,FALSE,FALSE,FALSE,FALSE,4.4
Dehli Darbar Kabab House,https://maps.google.com/?cid=2029481343561037649&g_mp=CiVnb29nbGUubWFwcy5wbGFjZXMudjEuUGxhY2VzLkdldFBsYWNlEAIYBCAA,Gulshan-e-Iqbal,PRICE_LEVEL_MODERATE,24.9276296,67.0897804,Barbecue Restaurant,TRUE,TRUE,TRUE,FALSE,FALSE,FALSE,TRUE,FALSE,TRUE,TRUE,FALSE,TRUE,TRUE,FALSE,FALSE,TRUE,TRUE,FALSE,TRUE,FALSE,TRUE,FALSE,FALSE,4.4
Broadway Pizza - Scheme 33,https://maps.google.com/?cid=1798558415708712755&g_mp=CiVnb29nbGUubWFwcy5wbGFjZXMudjEuUGxhY2VzLkdldFBsYWNlEAIYBCAA,Scheme 33,PRICE_LEVEL_MODERATE,24.9583817,67.1200954,Restaurant,TRUE,TRUE,TRUE,FALSE,FALSE,TRUE,TRUE,FALSE,TRUE,FALSE,FALSE,TRUE,TRUE,FALSE,TRUE,TRUE,TRUE,TRUE,FALSE,FALSE,FALSE,TRUE,FALSE,4.4
Desi Chatkhaary Dhaaba,https://maps.google.com/?cid=18102051171723330016&g_mp=CiVnb29nbGUubWFwcy5wbGFjZXMudjEuUGxhY2VzLkdldFBsYWNlEAIYBCAA,Nazimabad,PRICE_LEVEL_MODERATE,24.9025045,67.0249122,Restaurant,TRUE,TRUE,TRUE,FALSE,FALSE,TRUE,TRUE,FALSE,FALSE,TRUE,FALSE,TRUE,TRUE,FALSE,FALSE,TRUE,TRUE,FALSE,TRUE,FALSE,FALSE,TRUE,FALSE,4.4
Burger Boss,https://maps.google.com/?cid=4399551568329674259&g_mp=CiVnb29nbGUubWFwcy5wbGFjZXMudjEuUGxhY2VzLkdldFBsYWNlEAIYBCAA,DHA,PRICE_LEVEL_MODERATE,24.7877801,67.0577098,Fast Food Restaurant,TRUE,TRUE,TRUE,FALSE,FALSE,TRUE,TRUE,FALSE,FALSE,TRUE,FALSE,TRUE,TRUE,FALSE,FALSE,TRUE,TRUE,TRUE,FALSE,FALSE,FALSE,TRUE,FALSE,4.4
Wok's,https://maps.google.com/?cid=2636595396715700026&g_mp=CiVnb29nbGUubWFwcy5wbGFjZXMudjEuUGxhY2VzLkdldFBsYWNlEAIYBCAA,Gulshan-e-Iqbal,PRICE_LEVEL_MODERATE,24.9319104,67.1008281,Restaurant,TRUE,TRUE,TRUE,TRUE,FALSE,TRUE,TRUE,FALSE,FALSE,TRUE,FALSE,TRUE,TRUE,FALSE,FALSE,TRUE,TRUE,TRUE,FALSE,FALSE,FALSE,FALSE,FALSE,4.4
Shabbir Icecream,https://maps.google.com/?cid=1695599812276439930&g_mp=CiVnb29nbGUubWFwcy5wbGFjZXMudjEuUGxhY2VzLkdldFBsYWNlEAIYBCAA,North Nazimabad,PRICE_LEVEL_INEXPENSIVE,24.9369941,67.0414068,Dessert Shop,FALSE,TRUE,TRUE,FALSE,FALSE,FALSE,FALSE,FALSE,FALSE,FALSE,FALSE,TRUE,TRUE,FALSE,FALSE,FALSE,FALSE,FALSE,TRUE,FALSE,FALSE,FALSE,FALSE,4.4
Tasty Lecious,https://maps.google.com/?cid=17229657319331385657&g_mp=CiVnb29nbGUubWFwcy5wbGFjZXMudjEuUGxhY2VzLkdldFBsYWNlEAIYBCAA,Scheme 33,PRICE_LEVEL_MODERATE,24.9579339,67.1206525,Restaurant,TRUE,TRUE,TRUE,FALSE,FALSE,TRUE,TRUE,FALSE,FALSE,TRUE,FALSE,TRUE,TRUE,FALSE,FALSE,TRUE,TRUE,FALSE,TRUE,FALSE,FALSE,TRUE,FALSE,4.4
PIZZERIA - North Nazimabad,https://maps.google.com/?cid=12820228210869653789&g_mp=CiVnb29nbGUubWFwcy5wbGFjZXMudjEuUGxhY2VzLkdldFBsYWNlEAIYBCAA,Nazimabad,PRICE_LEVEL_MODERATE,24.9376727,67.0538865,Restaurant,TRUE,TRUE,TRUE,FALSE,FALSE,FALSE,TRUE,FALSE,FALSE,FALSE,FALSE,TRUE,TRUE,FALSE,FALSE,FALSE,TRUE,TRUE,FALSE,FALSE,FALSE,TRUE,FALSE,4.4
Cafe Jackson Five Restaurant,https://maps.google.com/?cid=16144921282801565124&g_mp=CiVnb29nbGUubWFwcy5wbGFjZXMudjEuUGxhY2VzLkdldFBsYWNlEAIYBCAA,DHA,PRICE_LEVEL_MODERATE,24.8175828,67.0404566,Cafe,TRUE,TRUE,TRUE,TRUE,TRUE,TRUE,TRUE,TRUE,TRUE,FALSE,TRUE,FALSE,TRUE,FALSE,TRUE,FALSE,TRUE,TRUE,FALSE,FALSE,FALSE,TRUE,FALSE,4.4
Zhongguo Cai,https://maps.google.com/?cid=4537525383111938906&g_mp=CiVnb29nbGUubWFwcy5wbGFjZXMudjEuUGxhY2VzLkdldFBsYWNlEAIYBCAA,DHA,PRICE_LEVEL_MODERATE,24.8216574,67.0640653,Chinese Restaurant,TRUE,TRUE,TRUE,TRUE,FALSE,TRUE,TRUE,TRUE,TRUE,FALSE,FALSE,TRUE,TRUE,FALSE,TRUE,FALSE,TRUE,TRUE,FALSE,FALSE,FALSE,FALSE,FALSE,4.4
The Region banquet and restaurant,https://maps.google.com/?cid=15676795224516986392&g_mp=CiVnb29nbGUubWFwcy5wbGFjZXMudjEuUGxhY2VzLkdldFBsYWNlEAIYBCAA,Clifton,PRICE_LEVEL_MODERATE,24.8173494,67.0178587,Restaurant,TRUE,FALSE,TRUE,TRUE,FALSE,TRUE,TRUE,TRUE,TRUE,TRUE,TRUE,TRUE,TRUE,FALSE,TRUE,TRUE,TRUE,TRUE,FALSE,TRUE,FALSE,FALSE,FALSE,4.4
The Food Bar Best Fast Food in Johar,https://maps.google.com/?cid=6548978868268680657&g_mp=CiVnb29nbGUubWFwcy5wbGFjZXMudjEuUGxhY2VzLkdldFBsYWNlEAIYBCAA,Gulistan-e-Johar,PRICE_LEVEL_MODERATE,24.9216383,67.1347252,Fast Food Restaurant,TRUE,TRUE,TRUE,TRUE,FALSE,TRUE,TRUE,FALSE,FALSE,TRUE,FALSE,TRUE,TRUE,FALSE,TRUE,FALSE,TRUE,TRUE,FALSE,FALSE,FALSE,TRUE,FALSE,4.4
Eggspectation Restaurant Cafe,https://maps.google.com/?cid=2105176392928619510&g_mp=CiVnb29nbGUubWFwcy5wbGFjZXMudjEuUGxhY2VzLkdldFBsYWNlEAIYBCAA,Clifton,PRICE_LEVEL_MODERATE,24.8068234,67.0336945,Restaurant,TRUE,TRUE,TRUE,FALSE,FALSE,FALSE,FALSE,FALSE,FALSE,TRUE,FALSE,FALSE,FALSE,FALSE,FALSE,FALSE,FALSE,TRUE,FALSE,FALSE,FALSE,FALSE,FALSE,4.4
Laktoza,https://maps.google.com/?cid=13480917637013224333&g_mp=CiVnb29nbGUubWFwcy5wbGFjZXMudjEuUGxhY2VzLkdldFBsYWNlEAIYBCAA,Gulshan-e-Iqbal,PRICE_LEVEL_MODERATE,24.9216782,67.0876601,Buffet Restaurant,TRUE,TRUE,TRUE,FALSE,FALSE,FALSE,FALSE,TRUE,TRUE,TRUE,FALSE,TRUE,FALSE,FALSE,FALSE,FALSE,FALSE,TRUE,FALSE,FALSE,FALSE,TRUE,FALSE,4.4
Potatoes,https://maps.google.com/?cid=5281392715374952259&g_mp=CiVnb29nbGUubWFwcy5wbGFjZXMudjEuUGxhY2VzLkdldFBsYWNlEAIYBCAA,Landhi,PRICE_LEVEL_MODERATE,24.8327778,67.175389,Restaurant,TRUE,TRUE,TRUE,FALSE,FALSE,FALSE,TRUE,FALSE,FALSE,TRUE,FALSE,TRUE,TRUE,FALSE,FALSE,TRUE,TRUE,FALSE,TRUE,FALSE,FALSE,TRUE,FALSE,4.4
Jagrah restaurant,https://maps.google.com/?cid=1319834076231112868&g_mp=CiVnb29nbGUubWFwcy5wbGFjZXMudjEuUGxhY2VzLkdldFBsYWNlEAIYBCAA,Landhi,PRICE_LEVEL_INEXPENSIVE,24.8404883,67.1835553,Restaurant,TRUE,TRUE,TRUE,FALSE,FALSE,TRUE,TRUE,TRUE,TRUE,TRUE,FALSE,TRUE,TRUE,FALSE,FALSE,TRUE,TRUE,FALSE,TRUE,FALSE,FALSE,TRUE,FALSE,4.4
Al-MEHBOOB Foods & Catering (Chapter 1),https://maps.google.com/?cid=13489938193097093734&g_mp=CiVnb29nbGUubWFwcy5wbGFjZXMudjEuUGxhY2VzLkdldFBsYWNlEAIYBCAA,Keamari,PRICE_LEVEL_INEXPENSIVE,24.823009,66.9884069,Restaurant,TRUE,TRUE,TRUE,TRUE,TRUE,TRUE,TRUE,FALSE,FALSE,FALSE,FALSE,TRUE,FALSE,FALSE,FALSE,FALSE,FALSE,FALSE,TRUE,FALSE,FALSE,FALSE,FALSE,4.4
Ice Cool Juices,https://maps.google.com/?cid=2022942512219574061&g_mp=CiVnb29nbGUubWFwcy5wbGFjZXMudjEuUGxhY2VzLkdldFBsYWNlEAIYBCAA,Central Karachi,PRICE_LEVEL_MODERATE,24.8812485,67.0419904,Juice Shop,TRUE,TRUE,TRUE,FALSE,FALSE,FALSE,FALSE,FALSE,FALSE,FALSE,FALSE,TRUE,TRUE,FALSE,FALSE,FALSE,TRUE,FALSE,TRUE,FALSE,FALSE,TRUE,FALSE,4.4
Mariyah's Den,https://maps.google.com/?cid=8783503662383758594&g_mp=CiVnb29nbGUubWFwcy5wbGFjZXMudjEuUGxhY2VzLkdldFBsYWNlEAIYBCAA,DHA,PRICE_LEVEL_MODERATE,24.8159919,67.0409226,Restaurant,TRUE,TRUE,TRUE,TRUE,FALSE,TRUE,TRUE,FALSE,TRUE,FALSE,FALSE,TRUE,TRUE,FALSE,FALSE,FALSE,TRUE,TRUE,FALSE,FALSE,FALSE,FALSE,FALSE,4.4
Saffron By Daily Dubai,https://maps.google.com/?cid=3029546068576003427&g_mp=CiVnb29nbGUubWFwcy5wbGFjZXMudjEuUGxhY2VzLkdldFBsYWNlEAIYBCAA,Shahrah-e-Faisal,PRICE_LEVEL_MODERATE,24.8788479,67.0652585,Restaurant,TRUE,TRUE,TRUE,TRUE,FALSE,TRUE,TRUE,FALSE,TRUE,FALSE,FALSE,TRUE,TRUE,FALSE,TRUE,FALSE,TRUE,TRUE,FALSE,FALSE,FALSE,FALSE,FALSE,4.4
Cafe Mest,https://maps.google.com/?cid=16558943463285547549&g_mp=CiVnb29nbGUubWFwcy5wbGFjZXMudjEuUGxhY2VzLkdldFBsYWNlEAIYBCAA,Gulistan-e-Johar,PRICE_LEVEL_MODERATE,24.922626,67.1157559,Restaurant,TRUE,TRUE,TRUE,FALSE,FALSE,TRUE,TRUE,TRUE,TRUE,FALSE,FALSE,TRUE,TRUE,FALSE,FALSE,TRUE,TRUE,TRUE,FALSE,FALSE,FALSE,TRUE,FALSE,4.4
TOKYO SUSHI STATION,https://maps.google.com/?cid=18216616177398161749&g_mp=CiVnb29nbGUubWFwcy5wbGFjZXMudjEuUGxhY2VzLkdldFBsYWNlEAIYBCAA,DHA,PRICE_LEVEL_MODERATE,24.7936292,67.0487635,Japanese Restaurant,TRUE,TRUE,TRUE,TRUE,FALSE,TRUE,TRUE,FALSE,FALSE,TRUE,FALSE,FALSE,TRUE,FALSE,FALSE,TRUE,TRUE,TRUE,FALSE,FALSE,FALSE,FALSE,FALSE,4.4
Raskoh Balochi Dumpukht Shahra-e-Faisal,https://maps.google.com/?cid=6705909505278202071&g_mp=CiVnb29nbGUubWFwcy5wbGFjZXMudjEuUGxhY2VzLkdldFBsYWNlEAIYBCAA,Sindhi Muslim,PRICE_LEVEL_MODERATE,24.8594225,67.0550752,Restaurant,TRUE,TRUE,TRUE,FALSE,FALSE,FALSE,TRUE,FALSE,FALSE,TRUE,FALSE,TRUE,TRUE,FALSE,FALSE,TRUE,TRUE,TRUE,FALSE,FALSE,FALSE,TRUE,FALSE,4.4
Casa Bistro,https://maps.google.com/?cid=16263603898424351271&g_mp=CiVnb29nbGUubWFwcy5wbGFjZXMudjEuUGxhY2VzLkdldFBsYWNlEAIYBCAA,DHA,PRICE_LEVEL_MODERATE,24.7894728,67.0751701,Restaurant,TRUE,TRUE,TRUE,TRUE,FALSE,FALSE,TRUE,TRUE,TRUE,TRUE,FALSE,FALSE,TRUE,FALSE,TRUE,FALSE,FALSE,TRUE,FALSE,FALSE,FALSE,TRUE,FALSE,4.4
Central cafe,https://maps.google.com/?cid=3154466376899831194&g_mp=CiVnb29nbGUubWFwcy5wbGFjZXMudjEuUGxhY2VzLkdldFBsYWNlEAIYBCAA,Nazimabad,PRICE_LEVEL_MODERATE,24.9335625,67.0314375,Restaurant,TRUE,TRUE,TRUE,FALSE,TRUE,FALSE,TRUE,TRUE,TRUE,FALSE,FALSE,TRUE,TRUE,FALSE,FALSE,TRUE,TRUE,TRUE,FALSE,FALSE,FALSE,TRUE,FALSE,4.4
Waheed B.B.Q,https://maps.google.com/?cid=16291432214010320220&g_mp=CiVnb29nbGUubWFwcy5wbGFjZXMudjEuUGxhY2VzLkdldFBsYWNlEAIYBCAA,Azam Basti,PRICE_LEVEL_INEXPENSIVE,24.8455505,67.0688683,Restaurant,TRUE,TRUE,TRUE,FALSE,FALSE,FALSE,TRUE,FALSE,FALSE,TRUE,FALSE,TRUE,TRUE,FALSE,FALSE,FALSE,TRUE,TRUE,FALSE,FALSE,FALSE,TRUE,FALSE,4.4
Abbas Burger since 1987,https://maps.google.com/?cid=10303440983144917803&g_mp=CiVnb29nbGUubWFwcy5wbGFjZXMudjEuUGxhY2VzLkdldFBsYWNlEAIYBCAA,Central Karachi,PRICE_LEVEL_MODERATE,24.8593041,66.9916009,Fast Food Restaurant,TRUE,TRUE,TRUE,FALSE,FALSE,FALSE,TRUE,FALSE,FALSE,FALSE,FALSE,TRUE,TRUE,FALSE,FALSE,TRUE,TRUE,FALSE,TRUE,FALSE,FALSE,FALSE,FALSE,4.4
Springs Cafe North Nazimabad,https://maps.google.com/?cid=15214994171651110&g_mp=CiVnb29nbGUubWFwcy5wbGFjZXMudjEuUGxhY2VzLkdldFBsYWNlEAIYBCAA,Nazimabad,PRICE_LEVEL_MODERATE,24.9291631,67.0348781,Restaurant,TRUE,TRUE,TRUE,FALSE,TRUE,FALSE,TRUE,TRUE,TRUE,FALSE,FALSE,TRUE,TRUE,FALSE,FALSE,TRUE,TRUE,TRUE,FALSE,FALSE,FALSE,FALSE,FALSE,4.4
The Dera Restaurant & Cafe,https://maps.google.com/?cid=8801335924863578036&g_mp=CiVnb29nbGUubWFwcy5wbGFjZXMudjEuUGxhY2VzLkdldFBsYWNlEAIYBCAA,Scheme 33,PRICE_LEVEL_MODERATE,24.9664541,67.1082557,Restaurant,TRUE,TRUE,TRUE,TRUE,FALSE,TRUE,TRUE,TRUE,FALSE,TRUE,FALSE,TRUE,TRUE,TRUE,TRUE,TRUE,FALSE,TRUE,FALSE,TRUE,FALSE,TRUE,FALSE,4.4
Malik Biryani Centre,https://maps.google.com/?cid=17200229144426942978&g_mp=CiVnb29nbGUubWFwcy5wbGFjZXMudjEuUGxhY2VzLkdldFBsYWNlEAIYBCAA,Korangi,PRICE_LEVEL_INEXPENSIVE,24.8350625,67.1349375,Indian Restaurant,TRUE,TRUE,TRUE,TRUE,FALSE,TRUE,TRUE,FALSE,FALSE,TRUE,FALSE,TRUE,TRUE,FALSE,FALSE,TRUE,TRUE,FALSE,TRUE,FALSE,FALSE,TRUE,FALSE,4.4
The Food Planetarium,https://maps.google.com/?cid=2402082417555812358&g_mp=CiVnb29nbGUubWFwcy5wbGFjZXMudjEuUGxhY2VzLkdldFBsYWNlEAIYBCAA,Gulistan-e-Johar,PRICE_LEVEL_MODERATE,24.9086841,67.1397391,Restaurant,TRUE,TRUE,TRUE,FALSE,FALSE,TRUE,TRUE,FALSE,FALSE,TRUE,FALSE,TRUE,TRUE,FALSE,FALSE,TRUE,TRUE,TRUE,FALSE,FALSE,FALSE,TRUE,FALSE,4.4
Soul Bistro,https://maps.google.com/?cid=3007568969306948049&g_mp=CiVnb29nbGUubWFwcy5wbGFjZXMudjEuUGxhY2VzLkdldFBsYWNlEAIYBCAA,Scheme 33,PRICE_LEVEL_MODERATE,24.9440798,67.1501993,Restaurant,TRUE,TRUE,TRUE,TRUE,FALSE,TRUE,TRUE,TRUE,TRUE,TRUE,FALSE,TRUE,TRUE,FALSE,TRUE,TRUE,TRUE,TRUE,FALSE,FALSE,FALSE,TRUE,FALSE,4.4
Quetta Shah Ji Hotel,https://maps.google.com/?cid=5008741699832031144&g_mp=CiVnb29nbGUubWFwcy5wbGFjZXMudjEuUGxhY2VzLkdldFBsYWNlEAIYBCAA,Malir,PRICE_LEVEL_INEXPENSIVE,24.8995271,67.1806559,Restaurant,TRUE,TRUE,TRUE,FALSE,TRUE,FALSE,FALSE,FALSE,FALSE,TRUE,FALSE,TRUE,TRUE,FALSE,FALSE,TRUE,TRUE,FALSE,TRUE,FALSE,TRUE,FALSE,FALSE,4.4
House 202 area 2c landhi 3v1/2 July Nagri Haleem,https://maps.google.com/?cid=4871242592538331406&g_mp=CiVnb29nbGUubWFwcy5wbGFjZXMudjEuUGxhY2VzLkdldFBsYWNlEAIYBCAA,Landhi,PRICE_LEVEL_INEXPENSIVE,24.8406,67.1948187,Restaurant,TRUE,TRUE,TRUE,FALSE,TRUE,TRUE,TRUE,FALSE,FALSE,TRUE,FALSE,TRUE,TRUE,FALSE,FALSE,TRUE,TRUE,TRUE,FALSE,FALSE,TRUE,FALSE,FALSE,4.4
Bamboo Lounge,https://maps.google.com/?cid=4928492981297707082&g_mp=CiVnb29nbGUubWFwcy5wbGFjZXMudjEuUGxhY2VzLkdldFBsYWNlEAIYBCAA,Nazimabad,PRICE_LEVEL_MODERATE,24.9342164,67.0528659,Restaurant,TRUE,TRUE,TRUE,TRUE,FALSE,TRUE,TRUE,TRUE,TRUE,TRUE,FALSE,TRUE,TRUE,FALSE,TRUE,TRUE,TRUE,TRUE,FALSE,FALSE,FALSE,TRUE,FALSE,4.4
Banchan,https://maps.google.com/?cid=9628504911972771815&g_mp=CiVnb29nbGUubWFwcy5wbGFjZXMudjEuUGxhY2VzLkdldFBsYWNlEAIYBCAA,Clifton,PRICE_LEVEL_MODERATE,24.8163383,67.0212177,Korean Restaurant,TRUE,TRUE,TRUE,FALSE,FALSE,FALSE,TRUE,FALSE,TRUE,FALSE,FALSE,TRUE,TRUE,FALSE,FALSE,FALSE,TRUE,TRUE,FALSE,TRUE,FALSE,FALSE,TRUE,4.4
De SOUL,https://maps.google.com/?cid=11899518073955090495&g_mp=CiVnb29nbGUubWFwcy5wbGFjZXMudjEuUGxhY2VzLkdldFBsYWNlEAIYBCAA,Clifton,PRICE_LEVEL_MODERATE,24.809509,67.0317978,Restaurant,TRUE,TRUE,TRUE,TRUE,FALSE,TRUE,TRUE,TRUE,TRUE,TRUE,FALSE,TRUE,TRUE,FALSE,TRUE,FALSE,TRUE,TRUE,FALSE,FALSE,FALSE,TRUE,FALSE,4.4
Meer Jee Restaurant,https://maps.google.com/?cid=7590757014272446430&g_mp=CiVnb29nbGUubWFwcy5wbGFjZXMudjEuUGxhY2VzLkdldFBsYWNlEAIYBCAA,Korangi,PRICE_LEVEL_MODERATE,24.8160096,67.1068219,Restaurant,TRUE,TRUE,TRUE,FALSE,FALSE,TRUE,TRUE,TRUE,TRUE,FALSE,FALSE,TRUE,TRUE,FALSE,FALSE,FALSE,TRUE,TRUE,FALSE,FALSE,FALSE,TRUE,FALSE,4.4
Nori,https://maps.google.com/?cid=10237476651666019355&g_mp=CiVnb29nbGUubWFwcy5wbGFjZXMudjEuUGxhY2VzLkdldFBsYWNlEAIYBCAA,DHA,PRICE_LEVEL_MODERATE,24.7875925,67.0795655,Restaurant,TRUE,TRUE,TRUE,TRUE,FALSE,TRUE,TRUE,FALSE,TRUE,FALSE,FALSE,TRUE,TRUE,FALSE,FALSE,TRUE,TRUE,TRUE,FALSE,FALSE,FALSE,FALSE,FALSE,4.4
MJ Fries,https://maps.google.com/?cid=5410026428789673216&g_mp=CiVnb29nbGUubWFwcy5wbGFjZXMudjEuUGxhY2VzLkdldFBsYWNlEAIYBCAA,Landhi,PRICE_LEVEL_MODERATE,24.8387622,67.1908714,American Restaurant,TRUE,TRUE,TRUE,FALSE,FALSE,FALSE,TRUE,FALSE,FALSE,TRUE,FALSE,TRUE,TRUE,FALSE,FALSE,TRUE,TRUE,FALSE,TRUE,FALSE,TRUE,FALSE,FALSE,4.4
Tasty Pakwan Centre & biryani house,https://maps.google.com/?cid=12235775609513827834&g_mp=CiVnb29nbGUubWFwcy5wbGFjZXMudjEuUGxhY2VzLkdldFBsYWNlEAIYBCAA,North Karachi,PRICE_LEVEL_MODERATE,24.9770479,67.0657912,Restaurant,TRUE,TRUE,TRUE,FALSE,FALSE,TRUE,TRUE,FALSE,FALSE,FALSE,FALSE,TRUE,TRUE,FALSE,FALSE,FALSE,TRUE,FALSE,TRUE,FALSE,FALSE,FALSE,FALSE,4.4
OD - Bahadurabad,https://maps.google.com/?cid=13215146941024387394&g_mp=CiVnb29nbGUubWFwcy5wbGFjZXMudjEuUGxhY2VzLkdldFBsYWNlEAIYBCAA,Bahadurabad,PRICE_LEVEL_MODERATE,24.8821395,67.0679386,Restaurant,TRUE,TRUE,TRUE,FALSE,FALSE,FALSE,FALSE,FALSE,TRUE,FALSE,FALSE,TRUE,TRUE,FALSE,FALSE,FALSE,FALSE,TRUE,FALSE,FALSE,FALSE,TRUE,FALSE,4.4
Noosh Restaurant,https://maps.google.com/?cid=14208773707521113971&g_mp=CiVnb29nbGUubWFwcy5wbGFjZXMudjEuUGxhY2VzLkdldFBsYWNlEAIYBCAA,Scheme 33,PRICE_LEVEL_MODERATE,24.9648703,67.1295767,Restaurant,TRUE,TRUE,TRUE,FALSE,FALSE,FALSE,FALSE,FALSE,FALSE,FALSE,FALSE,FALSE,FALSE,FALSE,FALSE,TRUE,TRUE,TRUE,FALSE,FALSE,FALSE,TRUE,FALSE,4.4
Agha Chinese & Fast Food,https://maps.google.com/?cid=4062373542435948400&g_mp=CiVnb29nbGUubWFwcy5wbGFjZXMudjEuUGxhY2VzLkdldFBsYWNlEAIYBCAA,Central Karachi,PRICE_LEVEL_MODERATE,24.8506427,67.0182655,Restaurant,TRUE,FALSE,TRUE,FALSE,FALSE,TRUE,TRUE,FALSE,FALSE,FALSE,FALSE,FALSE,TRUE,FALSE,FALSE,FALSE,TRUE,FALSE,TRUE,FALSE,FALSE,FALSE,TRUE,4.4
Mamu Biryani Malir,https://maps.google.com/?cid=11886667792190092463&g_mp=CiVnb29nbGUubWFwcy5wbGFjZXMudjEuUGxhY2VzLkdldFBsYWNlEAIYBCAA,Malir,PRICE_LEVEL_MODERATE,24.8976299,67.1933176,Indian Restaurant,TRUE,TRUE,TRUE,FALSE,FALSE,TRUE,TRUE,FALSE,FALSE,FALSE,FALSE,TRUE,TRUE,FALSE,FALSE,FALSE,TRUE,FALSE,TRUE,FALSE,FALSE,TRUE,FALSE,4.4
Northking Pizza Jinnah Avenue,https://maps.google.com/?cid=7983100339123382354&g_mp=CiVnb29nbGUubWFwcy5wbGFjZXMudjEuUGxhY2VzLkdldFBsYWNlEAIYBCAA,Malir,PRICE_LEVEL_MODERATE,24.8996475,67.1808372,Pizza Restaurant,TRUE,TRUE,TRUE,TRUE,TRUE,TRUE,TRUE,FALSE,FALSE,FALSE,FALSE,TRUE,TRUE,FALSE,FALSE,FALSE,TRUE,TRUE,FALSE,FALSE,TRUE,FALSE,FALSE,4.4
Madina Biryani Center,https://maps.google.com/?cid=7410226965352346480&g_mp=CiVnb29nbGUubWFwcy5wbGFjZXMudjEuUGxhY2VzLkdldFBsYWNlEAIYBCAA,Model Colony,PRICE_LEVEL_MODERATE,24.8939958,67.1867708,Restaurant,TRUE,TRUE,TRUE,FALSE,FALSE,FALSE,TRUE,FALSE,FALSE,FALSE,FALSE,FALSE,TRUE,FALSE,FALSE,FALSE,FALSE,FALSE,TRUE,FALSE,TRUE,FALSE,FALSE,4.4
Bholo Restaurant & BBQ,https://maps.google.com/?cid=11697632893619914888&g_mp=CiVnb29nbGUubWFwcy5wbGFjZXMudjEuUGxhY2VzLkdldFBsYWNlEAIYBCAA,Korangi,PRICE_LEVEL_MODERATE,24.8370812,67.1620828,Restaurant,TRUE,TRUE,TRUE,FALSE,FALSE,FALSE,TRUE,FALSE,FALSE,FALSE,FALSE,TRUE,TRUE,FALSE,FALSE,TRUE,TRUE,TRUE,FALSE,FALSE,TRUE,FALSE,FALSE,4.4
Bar BQ Tonight Clifton,https://maps.google.com/?cid=8397009510550168585&g_mp=CiVnb29nbGUubWFwcy5wbGFjZXMudjEuUGxhY2VzLkdldFBsYWNlEAIYBCAA,Clifton,PRICE_LEVEL_MODERATE,24.816051,67.0211821,Barbecue Restaurant,TRUE,TRUE,TRUE,TRUE,TRUE,TRUE,TRUE,TRUE,TRUE,TRUE,FALSE,TRUE,TRUE,FALSE,TRUE,TRUE,TRUE,TRUE,FALSE,TRUE,FALSE,TRUE,FALSE,4.3
Mazaidar Haleem & Foods (Samanabad Fb Area Block 18),https://maps.google.com/?cid=1891743642760045611&g_mp=CiVnb29nbGUubWFwcy5wbGFjZXMudjEuUGxhY2VzLkdldFBsYWNlEAIYBCAA,Federal B Area,PRICE_LEVEL_INEXPENSIVE,24.9443961,67.0735985,Restaurant,TRUE,TRUE,TRUE,TRUE,TRUE,TRUE,TRUE,FALSE,TRUE,FALSE,FALSE,TRUE,TRUE,FALSE,TRUE,TRUE,TRUE,FALSE,TRUE,FALSE,FALSE,TRUE,FALSE,4.3
Rashid Seafood,https://maps.google.com/?cid=4865023556523676454&g_mp=CiVnb29nbGUubWFwcy5wbGFjZXMudjEuUGxhY2VzLkdldFBsYWNlEAIYBCAA,Keamari,PRICE_LEVEL_MODERATE,24.8189435,66.9757143,Seafood Restaurant,TRUE,TRUE,TRUE,FALSE,FALSE,FALSE,TRUE,FALSE,TRUE,TRUE,FALSE,TRUE,TRUE,FALSE,FALSE,FALSE,TRUE,FALSE,TRUE,FALSE,FALSE,TRUE,FALSE,4.3
Foods Inn,https://maps.google.com/?cid=2100720923658475765&g_mp=CiVnb29nbGUubWFwcy5wbGFjZXMudjEuUGxhY2VzLkdldFBsYWNlEAIYBCAA,Sindhi Muslim,PRICE_LEVEL_MODERATE,24.8631004,67.0549176,Fast Food Restaurant,TRUE,TRUE,TRUE,FALSE,TRUE,TRUE,TRUE,TRUE,TRUE,FALSE,FALSE,TRUE,TRUE,FALSE,TRUE,TRUE,TRUE,TRUE,FALSE,TRUE,FALSE,TRUE,FALSE,4.3
McDonald's,https://maps.google.com/?cid=8554485775319014895&g_mp=CiVnb29nbGUubWFwcy5wbGFjZXMudjEuUGxhY2VzLkdldFBsYWNlEAIYBCAA,Malir,PRICE_LEVEL_MODERATE,24.9226641,67.1843405,Fast Food Restaurant,TRUE,TRUE,TRUE,FALSE,TRUE,TRUE,TRUE,TRUE,TRUE,FALSE,FALSE,TRUE,TRUE,FALSE,TRUE,TRUE,TRUE,TRUE,FALSE,TRUE,FALSE,TRUE,FALSE,4.3
"Dilpasand Sweets, Bakers & Nimco",https://maps.google.com/?cid=5621028363374745308&g_mp=CiVnb29nbGUubWFwcy5wbGFjZXMudjEuUGxhY2VzLkdldFBsYWNlEAIYBCAA,Saddar,PRICE_LEVEL_MODERATE,24.8603161,67.0165395,Bakery,FALSE,TRUE,TRUE,FALSE,TRUE,FALSE,FALSE,FALSE,FALSE,FALSE,FALSE,FALSE,FALSE,FALSE,FALSE,TRUE,TRUE,TRUE,FALSE,FALSE,FALSE,TRUE,FALSE,4.3
Ambala Sweets & Bakers,https://maps.google.com/?cid=16031901433514151325&g_mp=CiVnb29nbGUubWFwcy5wbGFjZXMudjEuUGxhY2VzLkdldFBsYWNlEAIYBCAA,PECHS,PRICE_LEVEL_INEXPENSIVE,24.854887,67.0669293,Bakery,FALSE,TRUE,TRUE,FALSE,TRUE,FALSE,FALSE,FALSE,FALSE,FALSE,FALSE,FALSE,FALSE,FALSE,FALSE,TRUE,TRUE,FALSE,TRUE,FALSE,FALSE,TRUE,FALSE,4.3
Ala Rahi,https://maps.google.com/?cid=10601965768058501768&g_mp=CiVnb29nbGUubWFwcy5wbGFjZXMudjEuUGxhY2VzLkdldFBsYWNlEAIYBCAA,DHA,PRICE_LEVEL_EXPENSIVE,24.795877,67.050226,Restaurant,TRUE,TRUE,TRUE,TRUE,TRUE,TRUE,TRUE,TRUE,TRUE,FALSE,FALSE,TRUE,TRUE,FALSE,TRUE,TRUE,TRUE,TRUE,FALSE,FALSE,FALSE,FALSE,FALSE,4.3
Quetta Alamgir Hotel main branch 1,https://maps.google.com/?cid=8590446871484746544&g_mp=CiVnb29nbGUubWFwcy5wbGFjZXMudjEuUGxhY2VzLkdldFBsYWNlEAIYBCAA,Bahadurabad,PRICE_LEVEL_INEXPENSIVE,24.879257,67.0717673,Breakfast Restaurant,TRUE,TRUE,TRUE,FALSE,TRUE,TRUE,FALSE,FALSE,FALSE,TRUE,FALSE,FALSE,TRUE,FALSE,FALSE,TRUE,TRUE,FALSE,TRUE,FALSE,TRUE,FALSE,FALSE,4.3
Alvigha Food,https://maps.google.com/?cid=5304559240562554334&g_mp=CiVnb29nbGUubWFwcy5wbGFjZXMudjEuUGxhY2VzLkdldFBsYWNlEAIYBCAA,Gulshan-e-Iqbal,PRICE_LEVEL_MODERATE,24.921554,67.0875601,Restaurant,TRUE,TRUE,TRUE,TRUE,FALSE,TRUE,TRUE,FALSE,TRUE,TRUE,FALSE,TRUE,TRUE,FALSE,TRUE,TRUE,TRUE,TRUE,FALSE,TRUE,FALSE,TRUE,FALSE,4.3
Xander's Clifton,https://maps.google.com/?cid=4057387029472629232&g_mp=CiVnb29nbGUubWFwcy5wbGFjZXMudjEuUGxhY2VzLkdldFBsYWNlEAIYBCAA,Clifton,PRICE_LEVEL_EXPENSIVE,24.8038489,67.0326301,Restaurant,TRUE,TRUE,TRUE,TRUE,TRUE,TRUE,TRUE,TRUE,TRUE,TRUE,FALSE,TRUE,TRUE,FALSE,TRUE,TRUE,TRUE,TRUE,FALSE,TRUE,FALSE,TRUE,FALSE,4.3
Raees Ahmed Arain Standard Biryani House,https://maps.google.com/?cid=6460286091823448107&g_mp=CiVnb29nbGUubWFwcy5wbGFjZXMudjEuUGxhY2VzLkdldFBsYWNlEAIYBCAA,Landhi,PRICE_LEVEL_MODERATE,24.8292634,67.1699585,Restaurant,TRUE,TRUE,TRUE,FALSE,TRUE,TRUE,TRUE,FALSE,TRUE,FALSE,FALSE,TRUE,TRUE,FALSE,TRUE,TRUE,TRUE,FALSE,TRUE,FALSE,TRUE,FALSE,FALSE,4.3
Butlers Chocolate Caf,https://maps.google.com/?cid=16623723864142980194&g_mp=CiVnb29nbGUubWFwcy5wbGFjZXMudjEuUGxhY2VzLkdldFBsYWNlEAIYBCAA,DHA,PRICE_LEVEL_EXPENSIVE,24.8171581,67.0410315,Cafe,TRUE,TRUE,TRUE,TRUE,TRUE,TRUE,TRUE,TRUE,TRUE,FALSE,FALSE,TRUE,TRUE,TRUE,TRUE,TRUE,TRUE,TRUE,FALSE,FALSE,FALSE,FALSE,FALSE,4.3
Mirchili Clifton,https://maps.google.com/?cid=10553157594833433357&g_mp=CiVnb29nbGUubWFwcy5wbGFjZXMudjEuUGxhY2VzLkdldFBsYWNlEAIYBCAA,Clifton,PRICE_LEVEL_MODERATE,24.8288407,67.0341254,Restaurant,TRUE,TRUE,TRUE,FALSE,FALSE,TRUE,TRUE,FALSE,TRUE,TRUE,FALSE,TRUE,TRUE,FALSE,TRUE,TRUE,TRUE,TRUE,FALSE,FALSE,FALSE,FALSE,FALSE,4.3
Ginsoy - Hyderi Branch,https://maps.google.com/?cid=4206986912878007328&g_mp=CiVnb29nbGUubWFwcy5wbGFjZXMudjEuUGxhY2VzLkdldFBsYWNlEAIYBCAA,Nazimabad,PRICE_LEVEL_MODERATE,24.944161,67.0449535,Chinese Restaurant,TRUE,TRUE,TRUE,TRUE,FALSE,TRUE,TRUE,FALSE,TRUE,FALSE,FALSE,TRUE,TRUE,FALSE,TRUE,TRUE,TRUE,TRUE,FALSE,TRUE,FALSE,FALSE,FALSE,4.3
United King Sharfabad,https://maps.google.com/?cid=10669208033663176647&g_mp=CiVnb29nbGUubWFwcy5wbGFjZXMudjEuUGxhY2VzLkdldFBsYWNlEAIYBCAA,Sharfabad,PRICE_LEVEL_MODERATE,24.8845803,67.0631342,Bakery,FALSE,TRUE,TRUE,FALSE,TRUE,FALSE,FALSE,FALSE,FALSE,FALSE,FALSE,FALSE,FALSE,FALSE,FALSE,FALSE,TRUE,TRUE,FALSE,FALSE,FALSE,FALSE,FALSE,4.3
,https://maps.google.com/?cid=5678710907418457589&g_mp=CiVnb29nbGUubWFwcy5wbGFjZXMudjEuUGxhY2VzLkdldFBsYWNlEAIYBCAA,Liaquatabad,PRICE_LEVEL_MODERATE,24.8990122,67.0441335,Restaurant,TRUE,TRUE,TRUE,FALSE,FALSE,FALSE,FALSE,FALSE,TRUE,TRUE,FALSE,TRUE,TRUE,FALSE,FALSE,TRUE,TRUE,FALSE,TRUE,FALSE,FALSE,TRUE,FALSE,4.3
Delhi Sweets,https://maps.google.com/?cid=9390945065697765910&g_mp=CiVnb29nbGUubWFwcy5wbGFjZXMudjEuUGxhY2VzLkdldFBsYWNlEAIYBCAA,PECHS,PRICE_LEVEL_MODERATE,24.8597325,67.0615054,Buffet Restaurant,TRUE,TRUE,TRUE,FALSE,TRUE,TRUE,FALSE,FALSE,TRUE,TRUE,FALSE,TRUE,FALSE,FALSE,FALSE,TRUE,TRUE,TRUE,FALSE,FALSE,FALSE,FALSE,FALSE,4.3
Qadri Nalli Biryani Liaquatabad,https://maps.google.com/?cid=460197420725043100&g_mp=CiVnb29nbGUubWFwcy5wbGFjZXMudjEuUGxhY2VzLkdldFBsYWNlEAIYBCAA,Liaquatabad,PRICE_LEVEL_MODERATE,24.9025681,67.0473553,Restaurant,TRUE,TRUE,TRUE,FALSE,FALSE,TRUE,TRUE,FALSE,TRUE,TRUE,FALSE,TRUE,TRUE,FALSE,FALSE,TRUE,TRUE,FALSE,TRUE,FALSE,FALSE,FALSE,TRUE,4.3
Xander's DHA Bukhari,https://maps.google.com/?cid=8587896242971552828&g_mp=CiVnb29nbGUubWFwcy5wbGFjZXMudjEuUGxhY2VzLkdldFBsYWNlEAIYBCAA,DHA,PRICE_LEVEL_EXPENSIVE,24.7912768,67.0644156,Restaurant,TRUE,TRUE,TRUE,TRUE,TRUE,TRUE,TRUE,TRUE,TRUE,FALSE,FALSE,TRUE,TRUE,FALSE,TRUE,TRUE,TRUE,TRUE,FALSE,FALSE,FALSE,TRUE,FALSE,4.3
Chop Chop Wok,https://maps.google.com/?cid=3362017334428829029&g_mp=CiVnb29nbGUubWFwcy5wbGFjZXMudjEuUGxhY2VzLkdldFBsYWNlEAIYBCAA,DHA,PRICE_LEVEL_MODERATE,24.796264,67.045499,Restaurant,TRUE,TRUE,TRUE,TRUE,FALSE,TRUE,TRUE,FALSE,TRUE,FALSE,FALSE,TRUE,TRUE,FALSE,TRUE,TRUE,TRUE,TRUE,FALSE,FALSE,FALSE,TRUE,FALSE,4.3
Pervez Yameen Kabab House,https://maps.google.com/?cid=9933700489530658555&g_mp=CiVnb29nbGUubWFwcy5wbGFjZXMudjEuUGxhY2VzLkdldFBsYWNlEAIYBCAA,Central Karachi,PRICE_LEVEL_INEXPENSIVE,24.8787016,67.0370865,Barbecue Restaurant,TRUE,TRUE,TRUE,FALSE,FALSE,FALSE,TRUE,FALSE,FALSE,TRUE,FALSE,TRUE,TRUE,FALSE,FALSE,TRUE,TRUE,FALSE,TRUE,FALSE,FALSE,TRUE,FALSE,4.3
Mehran Sajji,https://maps.google.com/?cid=10757206566978914872&g_mp=CiVnb29nbGUubWFwcy5wbGFjZXMudjEuUGxhY2VzLkdldFBsYWNlEAIYBCAA,Gulshan-e-Iqbal,PRICE_LEVEL_MODERATE,24.9027614,67.0750656,Barbecue Restaurant,TRUE,TRUE,TRUE,TRUE,FALSE,TRUE,TRUE,FALSE,TRUE,TRUE,FALSE,TRUE,TRUE,FALSE,TRUE,TRUE,TRUE,TRUE,FALSE,TRUE,FALSE,TRUE,FALSE,4.3
Frontier,https://maps.google.com/?cid=4435034527124011082&g_mp=CiVnb29nbGUubWFwcy5wbGFjZXMudjEuUGxhY2VzLkdldFBsYWNlEAIYBCAA,Clifton,PRICE_LEVEL_MODERATE,24.8263973,67.0258673,Restaurant,TRUE,TRUE,TRUE,TRUE,TRUE,TRUE,TRUE,FALSE,FALSE,TRUE,FALSE,TRUE,TRUE,FALSE,FALSE,TRUE,FALSE,FALSE,TRUE,FALSE,FALSE,TRUE,FALSE,4.3
Bombay Koyla Karhai,https://maps.google.com/?cid=12172798176585399958&g_mp=CiVnb29nbGUubWFwcy5wbGFjZXMudjEuUGxhY2VzLkdldFBsYWNlEAIYBCAA,Central Karachi,PRICE_LEVEL_MODERATE,24.9168616,67.0607266,Barbecue Restaurant,TRUE,TRUE,TRUE,FALSE,FALSE,FALSE,TRUE,FALSE,FALSE,TRUE,FALSE,TRUE,TRUE,FALSE,FALSE,TRUE,TRUE,FALSE,TRUE,FALSE,FALSE,TRUE,FALSE,4.3
Oh My Grill - Bahadurabad.,https://maps.google.com/?cid=7312208697783431513&g_mp=CiVnb29nbGUubWFwcy5wbGFjZXMudjEuUGxhY2VzLkdldFBsYWNlEAIYBCAA,Bahadurabad,PRICE_LEVEL_EXPENSIVE,24.8836363,67.0681105,Restaurant,TRUE,TRUE,TRUE,FALSE,FALSE,TRUE,TRUE,FALSE,FALSE,FALSE,FALSE,TRUE,TRUE,FALSE,TRUE,TRUE,TRUE,TRUE,FALSE,FALSE,FALSE,FALSE,FALSE,4.3
Cafe Bhaijaan,https://maps.google.com/?cid=13560604338463650323&g_mp=CiVnb29nbGUubWFwcy5wbGFjZXMudjEuUGxhY2VzLkdldFBsYWNlEAIYBCAA,Federal B Area,PRICE_LEVEL_INEXPENSIVE,24.925498,67.0662218,Cafe,TRUE,TRUE,TRUE,FALSE,TRUE,TRUE,FALSE,TRUE,FALSE,TRUE,FALSE,FALSE,TRUE,FALSE,FALSE,TRUE,TRUE,FALSE,TRUE,FALSE,TRUE,FALSE,FALSE,4.3
United King Clifton,https://maps.google.com/?cid=3934711815638526558&g_mp=CiVnb29nbGUubWFwcy5wbGFjZXMudjEuUGxhY2VzLkdldFBsYWNlEAIYBCAA,Clifton,PRICE_LEVEL_MODERATE,24.8344973,67.0357874,Bakery,TRUE,TRUE,TRUE,FALSE,TRUE,FALSE,FALSE,TRUE,FALSE,FALSE,FALSE,FALSE,FALSE,FALSE,FALSE,TRUE,TRUE,TRUE,FALSE,FALSE,FALSE,FALSE,FALSE,4.3
Caff Praha,https://maps.google.com/?cid=12534973737695732954&g_mp=CiVnb29nbGUubWFwcy5wbGFjZXMudjEuUGxhY2VzLkdldFBsYWNlEAIYBCAA,DHA,PRICE_LEVEL_MODERATE,24.7947683,67.0497443,Cafe,TRUE,TRUE,TRUE,TRUE,TRUE,TRUE,TRUE,TRUE,TRUE,FALSE,TRUE,TRUE,TRUE,TRUE,TRUE,TRUE,TRUE,TRUE,FALSE,FALSE,FALSE,FALSE,FALSE,4.3
Sialkot Bakers,https://maps.google.com/?cid=15000392609875528578&g_mp=CiVnb29nbGUubWFwcy5wbGFjZXMudjEuUGxhY2VzLkdldFBsYWNlEAIYBCAA,Bahadurabad,PRICE_LEVEL_MODERATE,24.8806409,67.0702653,Bakery,FALSE,TRUE,TRUE,FALSE,TRUE,FALSE,FALSE,FALSE,FALSE,FALSE,FALSE,FALSE,FALSE,FALSE,FALSE,FALSE,TRUE,FALSE,TRUE,FALSE,FALSE,TRUE,FALSE,4.3
N'eco's Natural Store & Cafe,https://maps.google.com/?cid=12022389892137766764&g_mp=CiVnb29nbGUubWFwcy5wbGFjZXMudjEuUGxhY2VzLkdldFBsYWNlEAIYBCAA,DHA,PRICE_LEVEL_MODERATE,24.7957426,67.0640696,Restaurant,TRUE,TRUE,TRUE,TRUE,TRUE,TRUE,TRUE,TRUE,TRUE,FALSE,FALSE,TRUE,TRUE,TRUE,TRUE,TRUE,TRUE,TRUE,FALSE,TRUE,FALSE,FALSE,FALSE,4.3
Esquires Coffee,https://maps.google.com/?cid=18150006452445265738&g_mp=CiVnb29nbGUubWFwcy5wbGFjZXMudjEuUGxhY2VzLkdldFBsYWNlEAIYBCAA,DHA,PRICE_LEVEL_EXPENSIVE,24.8165027,67.0419418,Cafe,TRUE,TRUE,TRUE,TRUE,TRUE,TRUE,TRUE,TRUE,TRUE,FALSE,FALSE,TRUE,TRUE,FALSE,TRUE,TRUE,TRUE,TRUE,FALSE,FALSE,FALSE,TRUE,FALSE,4.3
Azad Bun Kabab House,https://maps.google.com/?cid=6747088907919028442&g_mp=CiVnb29nbGUubWFwcy5wbGFjZXMudjEuUGxhY2VzLkdldFBsYWNlEAIYBCAA,Aram Bagh,PRICE_LEVEL_INEXPENSIVE,24.856216,67.0143274,Fast Food Restaurant,TRUE,TRUE,TRUE,FALSE,FALSE,TRUE,TRUE,FALSE,FALSE,TRUE,FALSE,TRUE,TRUE,FALSE,FALSE,TRUE,TRUE,FALSE,TRUE,FALSE,FALSE,TRUE,FALSE,4.3
Attari Biryani and Pulao,https://maps.google.com/?cid=3260425650432457711&g_mp=CiVnb29nbGUubWFwcy5wbGFjZXMudjEuUGxhY2VzLkdldFBsYWNlEAIYBCAA,Landhi,PRICE_LEVEL_INEXPENSIVE,24.8449173,67.1942097,Restaurant,TRUE,TRUE,TRUE,FALSE,FALSE,TRUE,TRUE,FALSE,TRUE,FALSE,FALSE,TRUE,TRUE,FALSE,FALSE,TRUE,TRUE,FALSE,TRUE,FALSE,FALSE,FALSE,TRUE,4.3
Cafe Darakhshan,https://maps.google.com/?cid=12021527388776255302&g_mp=CiVnb29nbGUubWFwcy5wbGFjZXMudjEuUGxhY2VzLkdldFBsYWNlEAIYBCAA,Saddar,PRICE_LEVEL_MODERATE,24.8648064,67.024993,Restaurant,TRUE,TRUE,TRUE,FALSE,FALSE,TRUE,TRUE,TRUE,TRUE,FALSE,FALSE,TRUE,TRUE,FALSE,FALSE,FALSE,TRUE,FALSE,TRUE,FALSE,FALSE,FALSE,TRUE,4.3
Culture Fish,https://maps.google.com/?cid=10841868235791011623&g_mp=CiVnb29nbGUubWFwcy5wbGFjZXMudjEuUGxhY2VzLkdldFBsYWNlEAIYBCAA,Gulshan-e-Iqbal,PRICE_LEVEL_MODERATE,24.9023359,67.0738031,Restaurant,TRUE,TRUE,TRUE,FALSE,FALSE,TRUE,TRUE,FALSE,FALSE,TRUE,FALSE,TRUE,TRUE,FALSE,FALSE,TRUE,TRUE,FALSE,TRUE,FALSE,FALSE,TRUE,FALSE,4.3
Anjarwala's sweet and Bakers,https://maps.google.com/?cid=12162486948135561703&g_mp=CiVnb29nbGUubWFwcy5wbGFjZXMudjEuUGxhY2VzLkdldFBsYWNlEAIYBCAA,Central Karachi,PRICE_LEVEL_MODERATE,24.8536525,67.0095267,Bakery,FALSE,TRUE,TRUE,FALSE,TRUE,FALSE,FALSE,TRUE,FALSE,FALSE,FALSE,FALSE,FALSE,FALSE,FALSE,TRUE,FALSE,TRUE,FALSE,TRUE,FALSE,FALSE,FALSE,4.3
Cafe Laziz( ) Burns Road,https://maps.google.com/?cid=5940224068167291569&g_mp=CiVnb29nbGUubWFwcy5wbGFjZXMudjEuUGxhY2VzLkdldFBsYWNlEAIYBCAA,Burns Road,PRICE_LEVEL_MODERATE,24.8565359,67.0155257,Restaurant,TRUE,TRUE,TRUE,FALSE,FALSE,TRUE,TRUE,FALSE,FALSE,TRUE,FALSE,TRUE,TRUE,FALSE,FALSE,TRUE,TRUE,TRUE,FALSE,FALSE,FALSE,TRUE,FALSE,4.3
Jumma Gujjar Nihari & Pakwan,https://maps.google.com/?cid=17438229100400620823&g_mp=CiVnb29nbGUubWFwcy5wbGFjZXMudjEuUGxhY2VzLkdldFBsYWNlEAIYBCAA,Central Karachi,PRICE_LEVEL_MODERATE,24.8964922,67.0453184,Restaurant,TRUE,TRUE,TRUE,FALSE,TRUE,TRUE,TRUE,FALSE,TRUE,FALSE,FALSE,TRUE,TRUE,FALSE,FALSE,TRUE,TRUE,FALSE,TRUE,FALSE,FALSE,FALSE,FALSE,4.3
Evergreen Cafe,https://maps.google.com/?cid=14582659585833618181&g_mp=CiVnb29nbGUubWFwcy5wbGFjZXMudjEuUGxhY2VzLkdldFBsYWNlEAIYBCAA,DHA,PRICE_LEVEL_EXPENSIVE,24.7940455,67.0490887,Restaurant,TRUE,TRUE,TRUE,TRUE,TRUE,TRUE,TRUE,TRUE,TRUE,FALSE,FALSE,TRUE,TRUE,FALSE,TRUE,TRUE,TRUE,TRUE,FALSE,FALSE,FALSE,FALSE,FALSE,4.3
Nando's Boat Basin,https://maps.google.com/?cid=11185325978762941875&g_mp=CiVnb29nbGUubWFwcy5wbGFjZXMudjEuUGxhY2VzLkdldFBsYWNlEAIYBCAA,Clifton,PRICE_LEVEL_EXPENSIVE,24.8273293,67.024479,Restaurant,TRUE,TRUE,TRUE,TRUE,FALSE,TRUE,TRUE,FALSE,TRUE,FALSE,FALSE,TRUE,TRUE,FALSE,TRUE,TRUE,TRUE,TRUE,FALSE,FALSE,FALSE,TRUE,FALSE,4.3
Theatre - Live Bakery & Cafe,https://maps.google.com/?cid=3078254251568617521&g_mp=CiVnb29nbGUubWFwcy5wbGFjZXMudjEuUGxhY2VzLkdldFBsYWNlEAIYBCAA,Tipu Sultan,PRICE_LEVEL_MODERATE,24.8686404,67.0778287,Cafe,TRUE,TRUE,TRUE,TRUE,TRUE,TRUE,TRUE,TRUE,TRUE,FALSE,FALSE,TRUE,TRUE,FALSE,TRUE,TRUE,TRUE,TRUE,FALSE,TRUE,FALSE,FALSE,FALSE,4.3
Karachi Dehli Gola Kabab House,https://maps.google.com/?cid=3317135019301339712&g_mp=CiVnb29nbGUubWFwcy5wbGFjZXMudjEuUGxhY2VzLkdldFBsYWNlEAIYBCAA,Gari Khata,PRICE_LEVEL_MODERATE,24.857266,67.0164024,Barbecue Restaurant,TRUE,TRUE,TRUE,FALSE,FALSE,TRUE,TRUE,FALSE,FALSE,TRUE,FALSE,TRUE,TRUE,FALSE,FALSE,TRUE,TRUE,FALSE,TRUE,FALSE,FALSE,TRUE,FALSE,4.3
Al Tawakkal Beef Pulao,https://maps.google.com/?cid=7096974817757819428&g_mp=CiVnb29nbGUubWFwcy5wbGFjZXMudjEuUGxhY2VzLkdldFBsYWNlEAIYBCAA,North Karachi,PRICE_LEVEL_MODERATE,24.9815062,67.0705032,Restaurant,TRUE,TRUE,TRUE,FALSE,FALSE,TRUE,TRUE,FALSE,FALSE,TRUE,FALSE,TRUE,TRUE,FALSE,FALSE,TRUE,TRUE,TRUE,FALSE,FALSE,FALSE,TRUE,FALSE,4.3
Okra Restaurant,https://maps.google.com/?cid=9343456001367090522&g_mp=CiVnb29nbGUubWFwcy5wbGFjZXMudjEuUGxhY2VzLkdldFBsYWNlEAIYBCAA,DHA,PRICE_LEVEL_VERY_EXPENSIVE,24.8183957,67.0394704,Restaurant,TRUE,TRUE,TRUE,TRUE,TRUE,TRUE,TRUE,TRUE,TRUE,TRUE,FALSE,FALSE,TRUE,FALSE,TRUE,TRUE,TRUE,TRUE,FALSE,FALSE,FALSE,FALSE,TRUE,4.3
Asia Live,https://maps.google.com/?cid=12709451631035224294&g_mp=CiVnb29nbGUubWFwcy5wbGFjZXMudjEuUGxhY2VzLkdldFBsYWNlEAIYBCAA,Cantonment,PRICE_LEVEL_EXPENSIVE,24.8524079,67.032317,Restaurant,TRUE,TRUE,TRUE,TRUE,TRUE,TRUE,TRUE,TRUE,TRUE,FALSE,FALSE,TRUE,TRUE,FALSE,TRUE,TRUE,TRUE,TRUE,FALSE,TRUE,FALSE,FALSE,FALSE,4.3
The East End,https://maps.google.com/?cid=11093610158481716686&g_mp=CiVnb29nbGUubWFwcy5wbGFjZXMudjEuUGxhY2VzLkdldFBsYWNlEAIYBCAA,Clifton,PRICE_LEVEL_EXPENSIVE,24.8305576,67.0384943,Restaurant,TRUE,TRUE,TRUE,TRUE,FALSE,FALSE,TRUE,TRUE,TRUE,TRUE,FALSE,FALSE,TRUE,FALSE,TRUE,TRUE,TRUE,TRUE,FALSE,TRUE,FALSE,FALSE,FALSE,4.3
Klay,https://maps.google.com/?cid=8141665249279933217&g_mp=CiVnb29nbGUubWFwcy5wbGFjZXMudjEuUGxhY2VzLkdldFBsYWNlEAIYBCAA,Clifton,PRICE_LEVEL_MODERATE,24.8182942,67.0222953,Restaurant,TRUE,TRUE,TRUE,TRUE,FALSE,TRUE,TRUE,TRUE,TRUE,TRUE,FALSE,TRUE,TRUE,FALSE,TRUE,TRUE,TRUE,TRUE,FALSE,TRUE,FALSE,TRUE,FALSE,4.3
Delhi Rabri House,https://maps.google.com/?cid=2048520103694785318&g_mp=CiVnb29nbGUubWFwcy5wbGFjZXMudjEuUGxhY2VzLkdldFBsYWNlEAIYBCAA,Saddar,PRICE_LEVEL_MODERATE,24.8568267,67.016273,Dessert Shop,FALSE,TRUE,TRUE,FALSE,FALSE,FALSE,FALSE,FALSE,FALSE,FALSE,FALSE,FALSE,FALSE,FALSE,FALSE,FALSE,FALSE,FALSE,TRUE,FALSE,FALSE,FALSE,FALSE,4.3
BBQ SHINWARI RESTAURANT,https://maps.google.com/?cid=7503997201426146714&g_mp=CiVnb29nbGUubWFwcy5wbGFjZXMudjEuUGxhY2VzLkdldFBsYWNlEAIYBCAA,Central Karachi,PRICE_LEVEL_MODERATE,25.0110423,66.8912171,Restaurant,TRUE,TRUE,TRUE,TRUE,FALSE,FALSE,TRUE,FALSE,TRUE,TRUE,FALSE,TRUE,TRUE,TRUE,TRUE,TRUE,TRUE,TRUE,FALSE,TRUE,FALSE,TRUE,FALSE,4.3
Fuchsia Urban Thai,https://maps.google.com/?cid=7871739802336767366&g_mp=CiVnb29nbGUubWFwcy5wbGFjZXMudjEuUGxhY2VzLkdldFBsYWNlEAIYBCAA,Clifton,PRICE_LEVEL_EXPENSIVE,24.8041636,67.0312805,Thai Restaurant,TRUE,TRUE,TRUE,TRUE,FALSE,TRUE,TRUE,TRUE,TRUE,TRUE,FALSE,TRUE,TRUE,FALSE,TRUE,TRUE,TRUE,TRUE,FALSE,FALSE,FALSE,FALSE,FALSE,4.3
Angus Steak House,https://maps.google.com/?cid=2169552820231224927&g_mp=CiVnb29nbGUubWFwcy5wbGFjZXMudjEuUGxhY2VzLkdldFBsYWNlEAIYBCAA,DHA,PRICE_LEVEL_MODERATE,24.8157053,67.0423916,Restaurant,TRUE,TRUE,TRUE,TRUE,FALSE,TRUE,TRUE,TRUE,TRUE,FALSE,FALSE,TRUE,TRUE,FALSE,TRUE,TRUE,TRUE,TRUE,FALSE,TRUE,FALSE,FALSE,FALSE,4.3
Havmor,https://maps.google.com/?cid=18265038193107308561&g_mp=CiVnb29nbGUubWFwcy5wbGFjZXMudjEuUGxhY2VzLkdldFBsYWNlEAIYBCAA,Bahadurabad,PRICE_LEVEL_MODERATE,24.882377,67.0677769,Dessert Shop,TRUE,TRUE,TRUE,FALSE,FALSE,FALSE,FALSE,TRUE,FALSE,FALSE,FALSE,TRUE,TRUE,FALSE,FALSE,FALSE,FALSE,TRUE,FALSE,FALSE,FALSE,TRUE,FALSE,4.3
Abdullah Nihari and Sheermal House,https://maps.google.com/?cid=9830429971196259781&g_mp=CiVnb29nbGUubWFwcy5wbGFjZXMudjEuUGxhY2VzLkdldFBsYWNlEAIYBCAA,Scheme 33,PRICE_LEVEL_MODERATE,24.9498125,67.1069375,Restaurant,TRUE,TRUE,TRUE,FALSE,TRUE,TRUE,TRUE,FALSE,TRUE,TRUE,FALSE,TRUE,TRUE,FALSE,FALSE,TRUE,TRUE,FALSE,TRUE,FALSE,FALSE,TRUE,FALSE,4.3
rowtisserie,https://maps.google.com/?cid=16197448026847015652&g_mp=CiVnb29nbGUubWFwcy5wbGFjZXMudjEuUGxhY2VzLkdldFBsYWNlEAIYBCAA,DHA,PRICE_LEVEL_MODERATE,24.8130283,67.0484619,Restaurant,TRUE,TRUE,TRUE,FALSE,TRUE,TRUE,TRUE,TRUE,TRUE,FALSE,FALSE,TRUE,TRUE,FALSE,TRUE,FALSE,TRUE,TRUE,FALSE,FALSE,FALSE,TRUE,FALSE,4.3
Delhi Shahi Kabab & Bar BQ,https://maps.google.com/?cid=6801180859873528465&g_mp=CiVnb29nbGUubWFwcy5wbGFjZXMudjEuUGxhY2VzLkdldFBsYWNlEAIYBCAA,Federal B Area,PRICE_LEVEL_INEXPENSIVE,24.916407,67.0558775,Barbecue Restaurant,TRUE,TRUE,TRUE,FALSE,FALSE,FALSE,TRUE,FALSE,TRUE,TRUE,FALSE,TRUE,TRUE,FALSE,FALSE,TRUE,TRUE,FALSE,TRUE,FALSE,FALSE,TRUE,FALSE,4.3
Cafe Shahbaz khi,https://maps.google.com/?cid=7776247251970939553&g_mp=CiVnb29nbGUubWFwcy5wbGFjZXMudjEuUGxhY2VzLkdldFBsYWNlEAIYBCAA,Tariq Road,PRICE_LEVEL_MODERATE,24.8704822,67.0605398,Restaurant,TRUE,TRUE,TRUE,FALSE,FALSE,TRUE,TRUE,FALSE,FALSE,FALSE,FALSE,TRUE,TRUE,FALSE,FALSE,TRUE,TRUE,FALSE,TRUE,FALSE,FALSE,FALSE,FALSE,4.3
Quetta Alamgir Hotel Bahadurabad branch.02,https://maps.google.com/?cid=16954055932717360064&g_mp=CiVnb29nbGUubWFwcy5wbGFjZXMudjEuUGxhY2VzLkdldFBsYWNlEAIYBCAA,Bahadurabad,PRICE_LEVEL_INEXPENSIVE,24.8798961,67.0713998,Breakfast Restaurant,TRUE,TRUE,TRUE,FALSE,TRUE,TRUE,FALSE,TRUE,FALSE,TRUE,FALSE,FALSE,TRUE,FALSE,FALSE,TRUE,TRUE,FALSE,TRUE,FALSE,TRUE,FALSE,FALSE,4.3
CHOWMEIN,https://maps.google.com/?cid=11896217484137127781&g_mp=CiVnb29nbGUubWFwcy5wbGFjZXMudjEuUGxhY2VzLkdldFBsYWNlEAIYBCAA,Nazimabad,PRICE_LEVEL_MODERATE,24.9376587,67.0539644,Chinese Restaurant,TRUE,TRUE,TRUE,TRUE,FALSE,TRUE,TRUE,FALSE,TRUE,FALSE,FALSE,TRUE,TRUE,FALSE,TRUE,TRUE,TRUE,TRUE,FALSE,TRUE,FALSE,TRUE,FALSE,4.3
Mapolos,https://maps.google.com/?cid=6419032571460875944&g_mp=CiVnb29nbGUubWFwcy5wbGFjZXMudjEuUGxhY2VzLkdldFBsYWNlEAIYBCAA,DHA,PRICE_LEVEL_MODERATE,24.7927884,67.0638265,Restaurant,TRUE,TRUE,TRUE,TRUE,TRUE,TRUE,TRUE,TRUE,TRUE,FALSE,FALSE,TRUE,TRUE,FALSE,TRUE,TRUE,TRUE,TRUE,FALSE,FALSE,FALSE,FALSE,FALSE,4.3
Gul Malik Hassan Zai Restaurant (Desilwa) - D. Silwa Koyla Karahi,https://maps.google.com/?cid=2962153162581014119&g_mp=CiVnb29nbGUubWFwcy5wbGFjZXMudjEuUGxhY2VzLkdldFBsYWNlEAIYBCAA,Nazimabad,PRICE_LEVEL_MODERATE,24.9268187,67.0300263,Restaurant,TRUE,TRUE,TRUE,TRUE,FALSE,TRUE,TRUE,FALSE,TRUE,TRUE,FALSE,TRUE,TRUE,FALSE,FALSE,TRUE,TRUE,FALSE,TRUE,FALSE,FALSE,TRUE,FALSE,4.3
Mazaidar Haleem & Foods (Block L North Nazimabad),https://maps.google.com/?cid=17471805827904277681&g_mp=CiVnb29nbGUubWFwcy5wbGFjZXMudjEuUGxhY2VzLkdldFBsYWNlEAIYBCAA,Nazimabad,PRICE_LEVEL_MODERATE,24.9408914,67.0503109,Restaurant,TRUE,TRUE,TRUE,TRUE,FALSE,TRUE,TRUE,FALSE,TRUE,TRUE,FALSE,TRUE,TRUE,FALSE,TRUE,TRUE,TRUE,TRUE,FALSE,FALSE,FALSE,TRUE,FALSE,4.3
Tabarak Haleem,https://maps.google.com/?cid=6152558548867420927&g_mp=CiVnb29nbGUubWFwcy5wbGFjZXMudjEuUGxhY2VzLkdldFBsYWNlEAIYBCAA,Central Karachi,PRICE_LEVEL_INEXPENSIVE,24.947764,67.0787229,Restaurant,TRUE,TRUE,TRUE,FALSE,FALSE,TRUE,TRUE,FALSE,FALSE,FALSE,FALSE,TRUE,TRUE,FALSE,FALSE,TRUE,TRUE,FALSE,TRUE,FALSE,FALSE,TRUE,FALSE,4.3
Drop Coffee Bar,https://maps.google.com/?cid=16566564963769489415&g_mp=CiVnb29nbGUubWFwcy5wbGFjZXMudjEuUGxhY2VzLkdldFBsYWNlEAIYBCAA,Tipu Sultan,PRICE_LEVEL_MODERATE,24.8754087,67.085071,Cafe,TRUE,TRUE,TRUE,FALSE,FALSE,FALSE,FALSE,TRUE,TRUE,FALSE,FALSE,FALSE,TRUE,FALSE,FALSE,TRUE,TRUE,TRUE,FALSE,FALSE,FALSE,TRUE,FALSE,4.3
M's Kitchen by Hamza Akram Qawal,https://maps.google.com/?cid=15240382626555198599&g_mp=CiVnb29nbGUubWFwcy5wbGFjZXMudjEuUGxhY2VzLkdldFBsYWNlEAIYBCAA,Shahrah-e-Faisal,PRICE_LEVEL_MODERATE,24.877491,67.0673971,Restaurant,TRUE,TRUE,TRUE,TRUE,FALSE,TRUE,TRUE,FALSE,TRUE,FALSE,FALSE,TRUE,TRUE,FALSE,TRUE,TRUE,TRUE,TRUE,FALSE,TRUE,FALSE,FALSE,FALSE,4.3
Burger O'Clock,https://maps.google.com/?cid=7312295078198158111&g_mp=CiVnb29nbGUubWFwcy5wbGFjZXMudjEuUGxhY2VzLkdldFBsYWNlEAIYBCAA,I.I. Chundrigar Road,PRICE_LEVEL_MODERATE,24.8499476,67.0068888,Fast Food Restaurant,TRUE,TRUE,TRUE,FALSE,FALSE,TRUE,TRUE,FALSE,FALSE,TRUE,FALSE,TRUE,TRUE,FALSE,TRUE,TRUE,TRUE,TRUE,FALSE,FALSE,FALSE,TRUE,FALSE,4.3
Mulla Nehari House & Shermall House,https://maps.google.com/?cid=15997290367010499323&g_mp=CiVnb29nbGUubWFwcy5wbGFjZXMudjEuUGxhY2VzLkdldFBsYWNlEAIYBCAA,Central Karachi,PRICE_LEVEL_INEXPENSIVE,24.891716,67.0535993,Restaurant,TRUE,TRUE,TRUE,FALSE,FALSE,TRUE,TRUE,FALSE,FALSE,FALSE,FALSE,TRUE,TRUE,FALSE,FALSE,FALSE,TRUE,FALSE,TRUE,FALSE,FALSE,FALSE,FALSE,4.3
Loco,https://maps.google.com/?cid=17202673451312131202&g_mp=CiVnb29nbGUubWFwcy5wbGFjZXMudjEuUGxhY2VzLkdldFBsYWNlEAIYBCAA,DHA,PRICE_LEVEL_MODERATE,24.8182892,67.0394429,Restaurant,TRUE,TRUE,TRUE,TRUE,FALSE,TRUE,TRUE,TRUE,TRUE,TRUE,FALSE,TRUE,TRUE,FALSE,TRUE,FALSE,FALSE,TRUE,FALSE,FALSE,FALSE,FALSE,FALSE,4.3
Tauheed Biryani Center,https://maps.google.com/?cid=658614745491974542&g_mp=CiVnb29nbGUubWFwcy5wbGFjZXMudjEuUGxhY2VzLkdldFBsYWNlEAIYBCAA,DHA,PRICE_LEVEL_MODERATE,24.809796,67.0360503,Indian Restaurant,TRUE,TRUE,TRUE,TRUE,FALSE,TRUE,TRUE,FALSE,TRUE,FALSE,FALSE,TRUE,TRUE,FALSE,TRUE,TRUE,TRUE,FALSE,TRUE,FALSE,FALSE,TRUE,FALSE,4.3
MirchMasala,https://maps.google.com/?cid=2027493365186373012&g_mp=CiVnb29nbGUubWFwcy5wbGFjZXMudjEuUGxhY2VzLkdldFBsYWNlEAIYBCAA,Landhi,PRICE_LEVEL_MODERATE,24.8360811,67.1622354,Restaurant,TRUE,TRUE,TRUE,FALSE,FALSE,TRUE,TRUE,FALSE,TRUE,TRUE,FALSE,TRUE,TRUE,FALSE,FALSE,TRUE,TRUE,FALSE,TRUE,FALSE,TRUE,FALSE,FALSE,4.3
Mirchili Tariq Road Branch,https://maps.google.com/?cid=18160134511702041711&g_mp=CiVnb29nbGUubWFwcy5wbGFjZXMudjEuUGxhY2VzLkdldFBsYWNlEAIYBCAA,Tariq Road,PRICE_LEVEL_MODERATE,24.8767735,67.0624911,Restaurant,TRUE,TRUE,TRUE,FALSE,FALSE,TRUE,FALSE,FALSE,FALSE,FALSE,FALSE,TRUE,TRUE,FALSE,FALSE,FALSE,FALSE,TRUE,FALSE,TRUE,FALSE,FALSE,FALSE,4.3
Cafe Hawaii,https://maps.google.com/?cid=4689180179781834567&g_mp=CiVnb29nbGUubWFwcy5wbGFjZXMudjEuUGxhY2VzLkdldFBsYWNlEAIYBCAA,Gulshan-e-Iqbal,PRICE_LEVEL_MODERATE,24.9335963,67.0995573,Restaurant,TRUE,TRUE,TRUE,TRUE,FALSE,TRUE,TRUE,TRUE,TRUE,TRUE,FALSE,TRUE,TRUE,FALSE,TRUE,TRUE,TRUE,TRUE,FALSE,TRUE,FALSE,TRUE,FALSE,4.3
Tea Time,https://maps.google.com/?cid=12974172829737708177&g_mp=CiVnb29nbGUubWFwcy5wbGFjZXMudjEuUGxhY2VzLkdldFBsYWNlEAIYBCAA,Clifton,PRICE_LEVEL_INEXPENSIVE,24.8123526,67.0162934,Cafe,TRUE,TRUE,TRUE,FALSE,FALSE,FALSE,FALSE,FALSE,FALSE,FALSE,FALSE,FALSE,FALSE,FALSE,FALSE,FALSE,FALSE,FALSE,TRUE,FALSE,TRUE,FALSE,FALSE,4.3
Cillie's,https://maps.google.com/?cid=5728719443252445530&g_mp=CiVnb29nbGUubWFwcy5wbGFjZXMudjEuUGxhY2VzLkdldFBsYWNlEAIYBCAA,Saddar,PRICE_LEVEL_MODERATE,24.8721064,67.0296307,Bakery,FALSE,TRUE,TRUE,FALSE,FALSE,FALSE,FALSE,FALSE,FALSE,FALSE,FALSE,FALSE,FALSE,FALSE,FALSE,TRUE,TRUE,FALSE,TRUE,FALSE,FALSE,FALSE,TRUE,4.3
Al Harmain Biryani & Quorma Center,https://maps.google.com/?cid=48132990609435129&g_mp=CiVnb29nbGUubWFwcy5wbGFjZXMudjEuUGxhY2VzLkdldFBsYWNlEAIYBCAA,Korangi,PRICE_LEVEL_INEXPENSIVE,24.8235342,67.1377415,Restaurant,TRUE,TRUE,TRUE,FALSE,FALSE,TRUE,TRUE,FALSE,FALSE,FALSE,FALSE,FALSE,TRUE,FALSE,FALSE,FALSE,TRUE,FALSE,TRUE,FALSE,FALSE,FALSE,FALSE,4.3
Cafe quetta,https://maps.google.com/?cid=15402933074122284375&g_mp=CiVnb29nbGUubWFwcy5wbGFjZXMudjEuUGxhY2VzLkdldFBsYWNlEAIYBCAA,Saddar,PRICE_LEVEL_MODERATE,24.8583332,67.0307452,Restaurant,TRUE,TRUE,TRUE,FALSE,TRUE,TRUE,FALSE,TRUE,FALSE,TRUE,FALSE,FALSE,TRUE,FALSE,FALSE,FALSE,TRUE,FALSE,TRUE,FALSE,TRUE,FALSE,FALSE,4.3
Cafe Ammos,https://maps.google.com/?cid=15885937036985699479&g_mp=CiVnb29nbGUubWFwcy5wbGFjZXMudjEuUGxhY2VzLkdldFBsYWNlEAIYBCAA,Clifton,PRICE_LEVEL_MODERATE,24.8069517,67.0332808,Restaurant,TRUE,TRUE,TRUE,TRUE,FALSE,TRUE,TRUE,TRUE,TRUE,TRUE,FALSE,TRUE,TRUE,FALSE,TRUE,TRUE,TRUE,TRUE,FALSE,TRUE,FALSE,TRUE,FALSE,4.3
Nabbu Bhai Bun Kabab House,https://maps.google.com/?cid=10844637019203466896&g_mp=CiVnb29nbGUubWFwcy5wbGFjZXMudjEuUGxhY2VzLkdldFBsYWNlEAIYBCAA,Malir,PRICE_LEVEL_INEXPENSIVE,24.9028938,67.1979987,Restaurant,TRUE,TRUE,TRUE,FALSE,FALSE,TRUE,TRUE,FALSE,FALSE,TRUE,FALSE,TRUE,TRUE,FALSE,FALSE,TRUE,TRUE,FALSE,TRUE,FALSE,FALSE,TRUE,FALSE,4.3
Fujiyama,https://maps.google.com/?cid=3907257222588689542&g_mp=CiVnb29nbGUubWFwcy5wbGFjZXMudjEuUGxhY2VzLkdldFBsYWNlEAIYBCAA,Cantonment,PRICE_LEVEL_VERY_EXPENSIVE,24.8527297,67.0322043,Restaurant,TRUE,TRUE,FALSE,TRUE,FALSE,TRUE,TRUE,FALSE,TRUE,FALSE,FALSE,TRUE,TRUE,FALSE,TRUE,TRUE,FALSE,TRUE,FALSE,TRUE,FALSE,FALSE,FALSE,4.3
Zam Zam Peyala4,https://maps.google.com/?cid=10940713260813589951&g_mp=CiVnb29nbGUubWFwcy5wbGFjZXMudjEuUGxhY2VzLkdldFBsYWNlEAIYBCAA,Clifton,PRICE_LEVEL_INEXPENSIVE,24.8265626,67.0356235,Cafe,TRUE,TRUE,TRUE,FALSE,TRUE,FALSE,FALSE,FALSE,FALSE,TRUE,FALSE,FALSE,FALSE,FALSE,FALSE,FALSE,FALSE,FALSE,TRUE,FALSE,TRUE,FALSE,FALSE,4.3
Kundan kabab and nihari house - best kabab in town,https://maps.google.com/?cid=4190387782323463&g_mp=CiVnb29nbGUubWFwcy5wbGFjZXMudjEuUGxhY2VzLkdldFBsYWNlEAIYBCAA,Gulshan-e-Iqbal,PRICE_LEVEL_MODERATE,24.9053568,67.0777813,Restaurant,TRUE,FALSE,TRUE,FALSE,FALSE,FALSE,TRUE,FALSE,FALSE,FALSE,FALSE,FALSE,FALSE,FALSE,FALSE,FALSE,TRUE,TRUE,FALSE,FALSE,FALSE,FALSE,FALSE,4.3
New Delhi Islam Restaurant & Nihari House,https://maps.google.com/?cid=16124724177150849509&g_mp=CiVnb29nbGUubWFwcy5wbGFjZXMudjEuUGxhY2VzLkdldFBsYWNlEAIYBCAA,Federal B Area,PRICE_LEVEL_MODERATE,24.9289028,67.0758631,Restaurant,TRUE,TRUE,FALSE,FALSE,FALSE,TRUE,TRUE,FALSE,FALSE,FALSE,FALSE,FALSE,TRUE,FALSE,FALSE,TRUE,TRUE,FALSE,TRUE,FALSE,TRUE,FALSE,FALSE,4.3
Burns Road Famous Babu Bun Kabab - Husainabad Branch,https://maps.google.com/?cid=13689288596170068094&g_mp=CiVnb29nbGUubWFwcy5wbGFjZXMudjEuUGxhY2VzLkdldFBsYWNlEAIYBCAA,Federal B Area,PRICE_LEVEL_INEXPENSIVE,24.9178019,67.0616211,Restaurant,TRUE,TRUE,TRUE,FALSE,FALSE,TRUE,TRUE,FALSE,FALSE,TRUE,FALSE,TRUE,TRUE,FALSE,FALSE,TRUE,TRUE,TRUE,FALSE,FALSE,FALSE,TRUE,FALSE,4.3
Cafe My Karachi,https://maps.google.com/?cid=8854868738183321828&g_mp=CiVnb29nbGUubWFwcy5wbGFjZXMudjEuUGxhY2VzLkdldFBsYWNlEAIYBCAA,Federal B Area,PRICE_LEVEL_MODERATE,24.9406993,67.0693618,Cafe,TRUE,TRUE,TRUE,TRUE,FALSE,FALSE,TRUE,TRUE,TRUE,TRUE,FALSE,TRUE,TRUE,FALSE,TRUE,TRUE,TRUE,TRUE,FALSE,FALSE,FALSE,TRUE,FALSE,4.3
Mirchili,https://maps.google.com/?cid=9325033135405971217&g_mp=CiVnb29nbGUubWFwcy5wbGFjZXMudjEuUGxhY2VzLkdldFBsYWNlEAIYBCAA,Clifton,PRICE_LEVEL_MODERATE,24.8019868,67.0300281,Restaurant,TRUE,TRUE,TRUE,FALSE,FALSE,TRUE,TRUE,FALSE,FALSE,FALSE,FALSE,TRUE,TRUE,FALSE,TRUE,TRUE,TRUE,TRUE,FALSE,TRUE,FALSE,FALSE,FALSE,4.3
The Story,https://maps.google.com/?cid=16054649608159588949&g_mp=CiVnb29nbGUubWFwcy5wbGFjZXMudjEuUGxhY2VzLkdldFBsYWNlEAIYBCAA,DHA,PRICE_LEVEL_MODERATE,24.7938695,67.0623577,Cafe,TRUE,TRUE,TRUE,TRUE,TRUE,TRUE,TRUE,TRUE,TRUE,FALSE,FALSE,TRUE,TRUE,FALSE,TRUE,FALSE,TRUE,TRUE,FALSE,FALSE,FALSE,FALSE,TRUE,4.3
Khyber Charsi Tikka Laiq Khan,https://maps.google.com/?cid=13598449980346627154&g_mp=CiVnb29nbGUubWFwcy5wbGFjZXMudjEuUGxhY2VzLkdldFBsYWNlEAIYBCAA,Clifton,PRICE_LEVEL_MODERATE,24.8264476,67.0260622,Restaurant,TRUE,TRUE,TRUE,TRUE,TRUE,TRUE,TRUE,FALSE,FALSE,TRUE,FALSE,TRUE,TRUE,FALSE,FALSE,FALSE,TRUE,TRUE,FALSE,FALSE,TRUE,FALSE,FALSE,4.3
"Kabsa Express (Authentic Arabic Food Falafel, Shawarma, Hummus, Mandi & Madhghout in Karachi)",https://maps.google.com/?cid=17830154471184866488&g_mp=CiVnb29nbGUubWFwcy5wbGFjZXMudjEuUGxhY2VzLkdldFBsYWNlEAIYBCAA,Gulistan-e-Johar,PRICE_LEVEL_MODERATE,24.9177912,67.1197066,Restaurant,TRUE,TRUE,TRUE,TRUE,TRUE,TRUE,TRUE,FALSE,TRUE,FALSE,FALSE,TRUE,TRUE,FALSE,FALSE,TRUE,TRUE,FALSE,TRUE,TRUE,FALSE,TRUE,FALSE,4.3
Builder Burger,https://maps.google.com/?cid=891411762474388691&g_mp=CiVnb29nbGUubWFwcy5wbGFjZXMudjEuUGxhY2VzLkdldFBsYWNlEAIYBCAA,DHA,PRICE_LEVEL_MODERATE,24.8004245,67.0577608,Restaurant,TRUE,TRUE,TRUE,FALSE,FALSE,FALSE,TRUE,FALSE,FALSE,FALSE,FALSE,TRUE,TRUE,FALSE,FALSE,TRUE,TRUE,TRUE,FALSE,FALSE,FALSE,TRUE,FALSE,4.3
Al-Rehman Biryani Center,https://maps.google.com/?cid=11552884028068727172&g_mp=CiVnb29nbGUubWFwcy5wbGFjZXMudjEuUGxhY2VzLkdldFBsYWNlEAIYBCAA,Central Karachi,PRICE_LEVEL_MODERATE,24.8759622,67.0321992,Restaurant,TRUE,TRUE,TRUE,TRUE,TRUE,TRUE,TRUE,FALSE,TRUE,TRUE,FALSE,TRUE,TRUE,FALSE,TRUE,TRUE,TRUE,TRUE,FALSE,TRUE,FALSE,TRUE,FALSE,4.3
Fajja Channa Paya,https://maps.google.com/?cid=10981904945648317679&g_mp=CiVnb29nbGUubWFwcy5wbGFjZXMudjEuUGxhY2VzLkdldFBsYWNlEAIYBCAA,Liaquatabad,PRICE_LEVEL_INEXPENSIVE,24.8849973,67.0353271,Restaurant,TRUE,TRUE,TRUE,FALSE,TRUE,TRUE,TRUE,FALSE,FALSE,TRUE,FALSE,FALSE,TRUE,FALSE,FALSE,TRUE,TRUE,FALSE,TRUE,FALSE,FALSE,TRUE,FALSE,4.3
Cafe Karachi Abdullah,https://maps.google.com/?cid=5904988240787288244&g_mp=CiVnb29nbGUubWFwcy5wbGFjZXMudjEuUGxhY2VzLkdldFBsYWNlEAIYBCAA,Central Jacob Lines,PRICE_LEVEL_INEXPENSIVE,24.8659556,67.0343662,Cafe,TRUE,TRUE,TRUE,FALSE,TRUE,TRUE,FALSE,TRUE,FALSE,TRUE,FALSE,FALSE,TRUE,FALSE,FALSE,FALSE,FALSE,FALSE,TRUE,FALSE,TRUE,FALSE,FALSE,4.3
cafe sultan,https://maps.google.com/?cid=3572860101550733440&g_mp=CiVnb29nbGUubWFwcy5wbGFjZXMudjEuUGxhY2VzLkdldFBsYWNlEAIYBCAA,Orangi Town,PRICE_LEVEL_MODERATE,24.9430036,66.9966093,Restaurant,TRUE,TRUE,TRUE,TRUE,FALSE,TRUE,TRUE,TRUE,TRUE,TRUE,FALSE,TRUE,TRUE,FALSE,FALSE,TRUE,TRUE,TRUE,FALSE,FALSE,FALSE,TRUE,FALSE,4.3
Haji Abdul Hakeem Gola Kabab House And Catering,https://maps.google.com/?cid=14305411853708628320&g_mp=CiVnb29nbGUubWFwcy5wbGFjZXMudjEuUGxhY2VzLkdldFBsYWNlEAIYBCAA,Central Karachi,PRICE_LEVEL_MODERATE,24.9000845,67.0440922,Barbecue Restaurant,TRUE,TRUE,TRUE,FALSE,FALSE,TRUE,TRUE,FALSE,FALSE,FALSE,FALSE,TRUE,TRUE,FALSE,FALSE,FALSE,TRUE,FALSE,TRUE,FALSE,FALSE,TRUE,FALSE,4.3
Tempura,https://maps.google.com/?cid=7902431739821041646&g_mp=CiVnb29nbGUubWFwcy5wbGFjZXMudjEuUGxhY2VzLkdldFBsYWNlEAIYBCAA,Central Karachi,PRICE_LEVEL_MODERATE,24.8838666,67.0681561,Restaurant,TRUE,TRUE,TRUE,TRUE,FALSE,TRUE,TRUE,FALSE,TRUE,TRUE,FALSE,TRUE,TRUE,FALSE,TRUE,FALSE,TRUE,TRUE,FALSE,TRUE,FALSE,FALSE,FALSE,4.3
Rashid Seafood Hotel Faran,https://maps.google.com/?cid=3626585741418664953&g_mp=CiVnb29nbGUubWFwcy5wbGFjZXMudjEuUGxhY2VzLkdldFBsYWNlEAIYBCAA,PECHS,PRICE_LEVEL_MODERATE,24.8598857,67.0627236,Seafood Restaurant,TRUE,TRUE,TRUE,TRUE,FALSE,FALSE,TRUE,FALSE,TRUE,FALSE,FALSE,TRUE,TRUE,FALSE,FALSE,TRUE,FALSE,TRUE,FALSE,FALSE,FALSE,TRUE,FALSE,4.3
STREETFOOD,https://maps.google.com/?cid=10059223957125004401&g_mp=CiVnb29nbGUubWFwcy5wbGFjZXMudjEuUGxhY2VzLkdldFBsYWNlEAIYBCAA,Federal B Area,PRICE_LEVEL_MODERATE,24.9276702,67.0702766,Fast Food Restaurant,TRUE,TRUE,TRUE,FALSE,FALSE,FALSE,TRUE,FALSE,TRUE,FALSE,FALSE,TRUE,TRUE,FALSE,FALSE,FALSE,FALSE,TRUE,FALSE,FALSE,FALSE,TRUE,FALSE,4.3
Abid Pakwan And BBQ Center,https://maps.google.com/?cid=15847196089138299645&g_mp=CiVnb29nbGUubWFwcy5wbGFjZXMudjEuUGxhY2VzLkdldFBsYWNlEAIYBCAA,Liaquatabad,PRICE_LEVEL_MODERATE,24.9022513,67.0488196,Restaurant,TRUE,TRUE,TRUE,FALSE,FALSE,TRUE,TRUE,FALSE,FALSE,FALSE,FALSE,FALSE,TRUE,FALSE,FALSE,FALSE,FALSE,FALSE,TRUE,FALSE,FALSE,FALSE,FALSE,4.3
Nagori Golden Milk Shop Orangi Town Branch,https://maps.google.com/?cid=14497416407774016274&g_mp=CiVnb29nbGUubWFwcy5wbGFjZXMudjEuUGxhY2VzLkdldFBsYWNlEAIYBCAA,Orangi Town,PRICE_LEVEL_INEXPENSIVE,24.9379567,67.0052247,Restaurant,TRUE,TRUE,TRUE,FALSE,TRUE,FALSE,FALSE,FALSE,TRUE,FALSE,FALSE,TRUE,TRUE,FALSE,FALSE,FALSE,TRUE,FALSE,TRUE,FALSE,TRUE,FALSE,FALSE,4.3
BoviChic North Nazimabad,https://maps.google.com/?cid=17454189289884489774&g_mp=CiVnb29nbGUubWFwcy5wbGFjZXMudjEuUGxhY2VzLkdldFBsYWNlEAIYBCAA,Nazimabad,PRICE_LEVEL_MODERATE,24.9376004,67.0424057,Fast Food Restaurant,TRUE,TRUE,TRUE,FALSE,FALSE,TRUE,TRUE,FALSE,FALSE,FALSE,FALSE,TRUE,TRUE,FALSE,FALSE,TRUE,TRUE,TRUE,FALSE,FALSE,FALSE,TRUE,FALSE,4.3
Sheraz BBQ Restaurant -,https://maps.google.com/?cid=12657738350570397514&g_mp=CiVnb29nbGUubWFwcy5wbGFjZXMudjEuUGxhY2VzLkdldFBsYWNlEAIYBCAA,Central Karachi,PRICE_LEVEL_MODERATE,24.8747377,66.91353,Restaurant,TRUE,TRUE,TRUE,FALSE,TRUE,FALSE,TRUE,FALSE,FALSE,TRUE,FALSE,TRUE,TRUE,FALSE,FALSE,FALSE,TRUE,FALSE,TRUE,FALSE,FALSE,TRUE,FALSE,4.3
Blend Coffee,https://maps.google.com/?cid=17444577202025253867&g_mp=CiVnb29nbGUubWFwcy5wbGFjZXMudjEuUGxhY2VzLkdldFBsYWNlEAIYBCAA,Bahadurabad,PRICE_LEVEL_MODERATE,24.8804295,67.0696984,Cafe,TRUE,TRUE,TRUE,FALSE,FALSE,FALSE,FALSE,TRUE,TRUE,FALSE,FALSE,TRUE,TRUE,FALSE,FALSE,FALSE,TRUE,TRUE,FALSE,FALSE,FALSE,TRUE,FALSE,4.3
D'WHITE Bistro & cafe,https://maps.google.com/?cid=213404858457991879&g_mp=CiVnb29nbGUubWFwcy5wbGFjZXMudjEuUGxhY2VzLkdldFBsYWNlEAIYBCAA,Orangi Town,PRICE_LEVEL_MODERATE,24.9562488,66.984422,Restaurant,TRUE,TRUE,TRUE,FALSE,TRUE,FALSE,TRUE,TRUE,TRUE,TRUE,FALSE,TRUE,TRUE,FALSE,FALSE,TRUE,TRUE,TRUE,FALSE,FALSE,FALSE,TRUE,FALSE,4.3
Dilpasand Kebab House Liaqatabad,https://maps.google.com/?cid=7723196436901197348&g_mp=CiVnb29nbGUubWFwcy5wbGFjZXMudjEuUGxhY2VzLkdldFBsYWNlEAIYBCAA,Nazimabad,PRICE_LEVEL_MODERATE,24.9051442,67.0432951,Barbecue Restaurant,TRUE,TRUE,TRUE,FALSE,FALSE,FALSE,TRUE,FALSE,FALSE,FALSE,FALSE,TRUE,TRUE,FALSE,FALSE,TRUE,TRUE,FALSE,TRUE,FALSE,TRUE,FALSE,TRUE,4.3
D-Chowk Restaurant,https://maps.google.com/?cid=14567278802743061115&g_mp=CiVnb29nbGUubWFwcy5wbGFjZXMudjEuUGxhY2VzLkdldFBsYWNlEAIYBCAA,Saddar,PRICE_LEVEL_MODERATE,24.8748192,67.030833,Restaurant,TRUE,TRUE,TRUE,FALSE,FALSE,FALSE,TRUE,FALSE,FALSE,TRUE,FALSE,TRUE,TRUE,FALSE,FALSE,TRUE,TRUE,FALSE,TRUE,FALSE,FALSE,TRUE,FALSE,4.3
Expo Pizza,https://maps.google.com/?cid=7080529550375103268&g_mp=CiVnb29nbGUubWFwcy5wbGFjZXMudjEuUGxhY2VzLkdldFBsYWNlEAIYBCAA,Bahadurabad,PRICE_LEVEL_MODERATE,24.8820625,67.0679375,Pizza Restaurant,TRUE,TRUE,TRUE,FALSE,FALSE,FALSE,TRUE,FALSE,FALSE,FALSE,FALSE,TRUE,TRUE,FALSE,FALSE,FALSE,TRUE,TRUE,FALSE,FALSE,TRUE,FALSE,FALSE,4.3
Anwaar Bhai Kachori Walay,https://maps.google.com/?cid=17011821058149724577&g_mp=CiVnb29nbGUubWFwcy5wbGFjZXMudjEuUGxhY2VzLkdldFBsYWNlEAIYBCAA,Saddar,PRICE_LEVEL_MODERATE,24.8580557,67.0191684,Restaurant,TRUE,TRUE,TRUE,FALSE,FALSE,FALSE,FALSE,FALSE,FALSE,TRUE,FALSE,FALSE,FALSE,FALSE,FALSE,FALSE,TRUE,FALSE,TRUE,FALSE,FALSE,FALSE,TRUE,4.3
Ishaq Bun Kabab,https://maps.google.com/?cid=17733367691275160981&g_mp=CiVnb29nbGUubWFwcy5wbGFjZXMudjEuUGxhY2VzLkdldFBsYWNlEAIYBCAA,New Chali,PRICE_LEVEL_INEXPENSIVE,24.853611,67.0119469,Restaurant,TRUE,TRUE,TRUE,FALSE,FALSE,FALSE,TRUE,FALSE,FALSE,FALSE,FALSE,FALSE,TRUE,FALSE,FALSE,FALSE,TRUE,FALSE,TRUE,FALSE,FALSE,FALSE,TRUE,4.3
Social Crabs,https://maps.google.com/?cid=2104265671631908956&g_mp=CiVnb29nbGUubWFwcy5wbGFjZXMudjEuUGxhY2VzLkdldFBsYWNlEAIYBCAA,DHA,PRICE_LEVEL_MODERATE,24.7942808,67.0493627,Restaurant,TRUE,TRUE,TRUE,TRUE,FALSE,FALSE,TRUE,FALSE,FALSE,FALSE,FALSE,TRUE,TRUE,FALSE,TRUE,TRUE,TRUE,TRUE,FALSE,FALSE,FALSE,FALSE,TRUE,4.3
Agha sea food,https://maps.google.com/?cid=2397202938495491679&g_mp=CiVnb29nbGUubWFwcy5wbGFjZXMudjEuUGxhY2VzLkdldFBsYWNlEAIYBCAA,Keamari,PRICE_LEVEL_MODERATE,24.8183247,66.9757652,Restaurant,TRUE,TRUE,TRUE,FALSE,FALSE,FALSE,TRUE,FALSE,FALSE,TRUE,FALSE,FALSE,TRUE,FALSE,FALSE,FALSE,TRUE,FALSE,TRUE,FALSE,FALSE,TRUE,FALSE,4.3
Cafe Zalzala Hotel,https://maps.google.com/?cid=4294930132490222823&g_mp=CiVnb29nbGUubWFwcy5wbGFjZXMudjEuUGxhY2VzLkdldFBsYWNlEAIYBCAA,Malir,PRICE_LEVEL_MODERATE,24.9008809,67.2117222,Restaurant,TRUE,TRUE,TRUE,FALSE,FALSE,TRUE,TRUE,FALSE,FALSE,TRUE,FALSE,FALSE,TRUE,FALSE,FALSE,FALSE,FALSE,TRUE,FALSE,FALSE,TRUE,FALSE,FALSE,4.3
Haji Kalloo Kabab And Roll Point,https://maps.google.com/?cid=524744423331247887&g_mp=CiVnb29nbGUubWFwcy5wbGFjZXMudjEuUGxhY2VzLkdldFBsYWNlEAIYBCAA,DHA,PRICE_LEVEL_INEXPENSIVE,24.8595582,67.008259,Restaurant,TRUE,TRUE,TRUE,FALSE,FALSE,FALSE,TRUE,FALSE,FALSE,TRUE,FALSE,FALSE,TRUE,FALSE,FALSE,FALSE,TRUE,FALSE,TRUE,FALSE,FALSE,TRUE,FALSE,4.3
Saeen Jo Sheesho,https://maps.google.com/?cid=3613594017424697623&g_mp=CiVnb29nbGUubWFwcy5wbGFjZXMudjEuUGxhY2VzLkdldFBsYWNlEAIYBCAA,DHA,PRICE_LEVEL_MODERATE,24.8206151,67.045719,Cafe,TRUE,TRUE,TRUE,FALSE,FALSE,TRUE,FALSE,TRUE,TRUE,FALSE,FALSE,FALSE,TRUE,FALSE,FALSE,FALSE,TRUE,TRUE,FALSE,FALSE,TRUE,FALSE,FALSE,4.3
Sarawan Fast Food,https://maps.google.com/?cid=9525932609442770491&g_mp=CiVnb29nbGUubWFwcy5wbGFjZXMudjEuUGxhY2VzLkdldFBsYWNlEAIYBCAA,Orangi Town,PRICE_LEVEL_MODERATE,24.9552058,66.9898982,Fast Food Restaurant,TRUE,TRUE,TRUE,FALSE,FALSE,TRUE,TRUE,FALSE,TRUE,FALSE,FALSE,TRUE,TRUE,FALSE,FALSE,TRUE,TRUE,FALSE,TRUE,FALSE,FALSE,TRUE,FALSE,4.3
Masha'ALLAH Meerath Kabab,https://maps.google.com/?cid=2556059011407301303&g_mp=CiVnb29nbGUubWFwcy5wbGFjZXMudjEuUGxhY2VzLkdldFBsYWNlEAIYBCAA,Liaquatabad,PRICE_LEVEL_INEXPENSIVE,24.9087578,67.0522608,Restaurant,TRUE,TRUE,TRUE,TRUE,FALSE,TRUE,TRUE,FALSE,FALSE,TRUE,FALSE,TRUE,TRUE,FALSE,FALSE,FALSE,TRUE,FALSE,TRUE,FALSE,FALSE,TRUE,FALSE,4.3
